"","text","id_str","lang","created_at","listed_count","location","user_id_str","description","followers_count","friends_count","screen_name","full_name","place_name","place_lat","place_lon","lat","lon"
"1","RT @: No, Hillary Clinton didn't insult Sanders' supporters as #BasementDwellers https://t.co/lImpLhc6xj https://t.co/XJRuLOkgDw","7.82359e+17","en","Sat Oct 01 23:19:02 +0000 2016",22,"Arizona","253838787","Staff Writer, http://AzPreps365.com. Have covered high school sports in Arizona in East Valley for 33 years. Worked with many great people during that time.",1850,40,"AZPreps365Les","Phoenix, AZ","Phoenix",33.5528625,-112.1246765,33.4055051,-112.0521777
"2","RT @: Here's a handy way of telling if you're on the wrong side. https://t.co/WjyjPKT99M","7.82359e+17","en","Sat Oct 01 23:19:02 +0000 2016",5,"Ellisville, MO","149762612",NA,47,93,"BlueBrained","Pawcatuck, CT","Pawcatuck",41.372244,-71.860604,41.3788,-71.8301
"3","RT @: Media acting like Hillary had nothing to do with Bill's sex scandals. She was INVOLVED https://t.co/51bxQqdjre","7.82359e+17","en","Sat Oct 01 23:19:03 +0000 2016",1,NA,"2392035552","i used to be Mr. no chill but im werkin on that shyt",126,936,"justbusiness23","Long Beach, CA","Long Beach",33.8091715,-118.1567105,33.79312,-118.12527
"4","woke up and the Sooners are winning. it's a good day in oklahoma.","7.82359e+17","en","Sat Oct 01 23:19:03 +0000 2016",85,NA,"4759732808","We ARE Passionate People Making a Difference.",27,0,"CanyonRanchJobs","Tucson, AZ","Tucson",32.1893905,-110.9155735,32.2217429,-110.926479
"5","RT @: .@, the choice of evangelicals, forced his wife 2 pose nude for Playboy even though she didnt want 2. ht","7.82359e+17","en","Sat Oct 01 23:19:03 +0000 2016",44,"Earth","2714673572","I'm a virtual rover travelling to San Diego! Powered by Google Street View. Please help control me! http://muffinlabs.com/rover/ made by @muffinista #botALLY",748,827,"EarthRoverBot","Colorado, USA","Colorado",38.997936,-105.5508905,38.33773261,-108.7038285
"6","RT @: We're going to make college debt-free for everyone in America. See how much you could save with Hillary's plan at ","7.82359e+17","en","Sat Oct 01 23:19:04 +0000 2016",3,"Indianapolis, Indiana","15974102","I'm 29 and just trying to be myself, whoever that turns out to be. I drink a lot of beer.",101,147,"lianbe","Speedway, IN","Speedway",39.7882845,-86.2503435,39.802,-86.2687
"7","RT @: Donald Trump, who cheated on his wife, says infidelity was ""not a problem"" in his marriage.  https://t.co/Brni4GHTVC","7.82359e+17","en","Sat Oct 01 23:19:04 +0000 2016",22,"East Harlem, New York","1470858842","New York County Democratic Committeeman, 68th Assembly District
*East Harlem Community Issues contact 212-401-6941*  
/G\",5682,1856,"RODRIQUEZKELMY","Manhattan, NY","Manhattan",40.780709,-73.9685415,40.80991152,-73.95189285
"8","What? If hubby isn't voting for Hillary too, I don't want to have sex with him.

https://t.co/XH3AsfIKiK","7.82359e+17","en","Sat Oct 01 23:19:05 +0000 2016",12,"Dallas/Ft. Worth, Texas","16090652",NA,172,524,"YldeSyde","Dallas, TX","Dallas",32.8198585,-96.7617535,32.86912889,-96.77251589
"9","RT @: Hillary Clinton believes LGBT rights are human rights.
Donald Trump wants to repeal marriage equality &amp; supports anti-LGBT bil","7.82359e+17","en","Sat Oct 01 23:19:05 +0000 2016",10,"Michigan, USA","358442162","Independent Beauty Consultant Sagittarius<U+2650><U+FE0F> • Married 09/24/16 • Music is my life • Snapchat: LizVengeance",72,38,"LizVengeance","Orlando, FL","Orlando",28.5016785,-81.3677725,28.47344068,-81.46486637
"10","I'm out for dead presidents to represent me","7.82359e+17","en","Sat Oct 01 23:19:05 +0000 2016",19,"Leslie, MI","992211900","http://facebook.com/howehealthy",93,202,"Shauna_MH4","Michigan, USA","Michigan",45.00118,-86.2705395,42.44890689,-84.43895556
"11","RT @: TRUMP: Hillary won't stand up to America's enemies. I will.

*Gets into fights with Miss Universe, Gold Star family, and a baby*","7.82359e+17","en","Sat Oct 01 23:19:06 +0000 2016",0,"Edinburg, TX","3238158587","Established 1991 the Edinburg North Color Guard has a long, rich history.",33,61,"EdinburgNorthCG","Texas, USA","Texas",31.1688935,-100.0768885,26.25184854,-98.48266463
"12","I added a video to a @ playlist https://t.co/raKguR0NS9 Hillary Clinton says Bernie Supporters bought into false Promise","7.82359e+17","en","Sat Oct 01 23:19:06 +0000 2016",2,NA,"1027546555","live life",534,495,"mackskyy","Pennsylvania, USA","Pennsylvania",41.1179365,-77.604684,40.02297987,-79.29783172
"13","#Cathartic sales are gonna spike I'll bet.
 #CageAllDay","7.82359e+17","en","Sat Oct 01 23:19:07 +0000 2016",15,"Gainesville, FL","123716663","Weather updates, forecast, warnings and information for Gainesville, FL. Sources: http://OpenWeatherMap.org, NOAA, USGS.",374,4,"_GainesvilleFL","Gainesville, FL","Gainesville",29.6731715,-82.3302695,29.65,-82.32
"14","RT @: Ladies and gentlemen, I present to you a sick Hillary supporter! https://t.co/GWJi2pk6SN","7.82359e+17","en","Sat Oct 01 23:19:07 +0000 2016",91,"Copenhagen, Denmark","61750032","New Wave - Post Punk // New EP The 'American Dream' out on Moon Sounds Records + 2016 tours in Europe, USA & Canada",1745,569,"foreignresort","Los Angeles, CA","Los Angeles",34.0207895,-118.4119065,34.0522,-118.243
"15","RT @: Donald Trump reportedly pressured his second wife to appear in Playboy https://t.co/SmGPBQBPlv https://t.co/snS35bxlpn","7.82359e+17","en","Sat Oct 01 23:19:08 +0000 2016",0,"Des Moines Iowa","254772851","LHS class of 2014, Central College class of 2018 <U+26BE><U+FE0F><U+26BE><U+FE0F> #blessed",1065,758,"TooFly_TyTy","Pella, IA","Pella",41.4022135,-92.9242055,41.4003249,-92.9186849
"16","What's good SA?","7.82359e+17","en","Sat Oct 01 23:19:08 +0000 2016",29,"NYC","266959085","Wellness expert and celebrity trainer. #KGBody is a personal body designer; focusing on achieving #YourIdealShape.  For inquiries, please email info@kgbody.com.",698,198,"KGBody","Los Angeles, CA","Los Angeles",34.0207895,-118.4119065,34.07011397,-118.4846533
"17","RT @: This is why Hillary Clinton will win the presidency. https://t.co/YOv6ECy9WI","7.82359e+17","en","Sat Oct 01 23:19:09 +0000 2016",20,"SLC, Utah #801","305847463","Ole Miss Rebel Alumni<U+2764><U+FE0F>Bachelor of Arts.<U+270D>MGCCC Alumni. Paralegal<U+2696> Currently a Southerner living in the wild mountains of UT",265,800,"KayTriplette","Park City, UT","Park City",40.653281,-111.4991495,40.6593,-111.5
"18","How can someone like Michelle Obama say ""Never Trump"" one day and hug George W. Bush the next? What does that say?","7.82359e+17","en","Sat Oct 01 23:19:09 +0000 2016",66,"Boulder, CO","22761567","Follow this account for geo-targeted Healthcare job tweets in Boulder, CO. Need help? Tweet us at @CareerArc!",377,310,"tmj_cob_health1","Broomfield, CO","Broomfield",39.9472495,-105.072231,39.9651949,-105.0206757
"19","RT @:  #Dems4Trump

This election isn't about Republican vs. Democrat. It's about #Corruption vs
#MakeAmericaGreatAgain ","7.82359e+17","en","Sat Oct 01 23:19:09 +0000 2016",422,NA,"2924224280","Check out our open positions to learn how you can WORK YOUR SPIRIT at #SONIC!",347,39,"SONICjobs","Dublin, TX","Dublin",32.0894405,-98.3424555,32.0985099,-98.3369114
"20","I swear if my brother asks me about bowling one more time","7.82359e+17","en","Sat Oct 01 23:19:10 +0000 2016",3,"highlands, lou-- F<U+039C>, bg ","331161345","deconstructing the patriarchy one tweet at a time",726,621,"ukukalee","Bowling Green, KY","Bowling Green",36.965671,-86.4355085,36.9817,-86.4444
"21","That just literally broke my heart","7.82359e+17","en","Sat Oct 01 23:19:12 +0000 2016",0,"Philadelphia","300885628",NA,9,35,"Oct-33","Philadelphia, PA","Philadelphia",40.0048655,-75.117998,39.94852,-75.16194
"22","#NowPlaying ""Optimist (We Are Not For Them)"" by P.O.S.","7.82359e+17","en","Sat Oct 01 23:19:12 +0000 2016",34,"Arlington, VA","14527508","80% water, 20% lady",528,413,"littlepielady","Virginia Beach, VA","Virginia Beach",36.8025415,-76.069946,36.84828239,-75.97465171
"23","RT @: I think other thing the deplorables dont get. Normal people get scared by them. Theyre driving many ppl away from Trump","7.82359e+17","en","Sat Oct 01 23:19:12 +0000 2016",5,NA,"632466936","stoked",2007,468,"jfanns","Orland Park, IL","Orland Park",41.604577,-87.8512035,41.6116,-87.8543
"24","RT @: Hillary claims to be a champion of women's rights... Yet she receives millions from repressive regimes with horrifi ","7.82359e+17","en","Sat Oct 01 23:19:12 +0000 2016",17,"Michigan","127117704","Less Things, More Travel.",484,295,"kirs10matson","Traverse City, MI","Traverse City",44.7595575,-85.599065,44.76383737,-85.61374068
"25","HAPPY OCTOBER!!","7.82359e+17","en","Sat Oct 01 23:19:14 +0000 2016",0,"Kinston, NC","38093638","Creative Arts Pastor at Tanglewood Church in Kinston, North Carolina.",142,228,"steph_towne","North Carolina, USA","North Carolina",35.1704985,-79.861034,35.3261194,-78.03433462
"26","Hillary Clinton trolls Trump with late-night tweets of her own: Hillary Clinton (or her staff) took a moment ... https://t.co/rxb8B8ALlW","7.82359e+17","en","Sat Oct 01 23:19:14 +0000 2016",73,"Northville, MI","4826126562","Full Lines Insurance and Financial Services! Like us on FB @markwilliamsinsuranceagent or request a quote at http://farmersagent.com/mwilliams12 or 248-938-4019",508,851,"MWInsurancAgent","Northville, MI","Northville",42.4191315,-83.4909575,42.4345,-83.4844
"27","@ thanks. I needed that.","7.82359e+17","en","Sat Oct 01 23:19:14 +0000 2016",1,"Philadelphia, Pa 19145","1661579754",NA,46,146,"bkbeady","Philadelphia, PA","Philadelphia",40.0048655,-75.117998,39.9637759,-75.1317543
"28","RT @: @'s army of #deplorables &amp; #basementdwellers will address #Clinton &amp; #MSM's sideshows so Trump can s ","7.82359e+17","en","Sat Oct 01 23:19:15 +0000 2016",7,"tampa","1685930761","Instagram:MMTOTB, snapchat:MMTOTB, http://Facebook.com/mmtotb",15,8,"MMTOTB","Westchase, FL","Westchase",28.062051,-82.61342,28.0438796,-82.5972683
"29","RT @: Trump fans: Lots of u send me death threats, giggling bout being called deplorables. Do u not get ppl who send death th","7.82359e+17","en","Sat Oct 01 23:19:15 +0000 2016",3,"Dublin, OH","234194733","Weather updates, forecast, warnings and information for Dublin, OH. Sources: http://OpenWeatherMap.org, NOAA, USGS.",36,29,"DublinOH","Dublin, OH","Dublin",40.1252735,-83.139281,40.1,-83.11
"30","Fuxk ya bitxh wit my jeans on.. ain't making love naked","7.82359e+17","en","Sat Oct 01 23:19:16 +0000 2016",36,"Somewhere talkin' sports","212428792","Atlanta native!!! #Falcons #Braves #Dawgs #Hawks.... Follow me ;)",1041,1199,"LUVMESUMFALCONS","Georgia, USA","Georgia",32.6782075,-83.1738665,33.8210001,-84.7250427
"31","RT @: ""We are going to raise taxes on the middle class"" -Hillary Clinton #NeverHillary #Trump20... https://t.co/CpjyWHw8uE","7.82359e+17","en","Sat Oct 01 23:19:16 +0000 2016",4,"Houston","7.78263e+17","#NT Eagles Football. Rockets Basketball. Astros Baseball.",130,201,"_BasedJG","Paradise, NV","Paradise",36.0609645,-115.135165,36.09218067,-115.1369959
"32","Damn and Selena's on at the same time","7.82359e+17","en","Sat Oct 01 23:19:16 +0000 2016",36,"Columbus, OH","60780261","I love travel, photography, learning about the people and places around us, and trying to help a little along the way. And, GO BLUE JACKETS!",980,1946,"rgbtexex","Columbus, OH","Columbus",39.9946835,-82.985772,39.9833,-82.9833
"33","And UNC upset Florida state. It's a good night!","7.82359e+17","en","Sat Oct 01 23:19:18 +0000 2016",6,"Western Mass-Berkshires ","22577970","I'm also on Tumblr. Ask away if interested.",379,1249,"JoeDaltn","Lenox, MA","Lenox",42.347554,-73.272674,42.35913,-73.28388
"34","CD you got to be able to make that play bro. #Crucial","7.82359e+17","en","Sat Oct 01 23:19:18 +0000 2016",14,"North Carolina","467647981","Booking Info: bcamg24@gmail.com
BUY MY MUSIC (CLICK THE LINK BELOW)<ed><U+00A0><U+00BD><ed><U+00B1><U+0087>",928,993,"bcamg23","Greensboro, NC","Greensboro",36.090397,-79.8573635,36.0799,-79.8194
"35","For those who are confused by there being more self-identified D than R in polls (*cough* @ *cough*), th https://t.co/wjp4oCHlbZ","7.82359e+17","en","Sat Oct 01 23:19:18 +0000 2016",47,"ATLANTA, GEORGIA","584131339","BOOKINGSPYDERMANREADY@GMAIL.COM http://hfacebook.com/SPYDERMAN24ht... IG@Spyderman24",79000,3411,"SpydermanReady2","Atlanta, GA","Atlanta",33.7671945,-84.433106,33.78721919,-84.48961589
"36","RT @: Hillary a blood now so she could get more black votes  https://t.co/Ywp06eJyy5","7.82359e+17","en","Sat Oct 01 23:19:18 +0000 2016",17,"West Coast [[cAli GiRl]] ","34153304","BehindThaScenesM.U.S.E. U want it i have it [[Loyal sweet honest and crazy at times]] cant always go on a straight arrow curves are needed need I say more",1481,1561,"bombdiggityy","Bellflower, CA","Bellflower",33.8880815,-118.129042,33.8882,-118.128
"37","They can blow up WTC building &amp; get 3.4 billion after killing 3000 ppl. 

Hillary can break 50 federal laws, lie &amp; run for president! ","7.82359e+17","en","Sat Oct 01 23:19:20 +0000 2016",8,"West Virginia, USA","948130160","Mom,Wife,Daughter,Sister and Friend. When I die I want to be remembered not for red hair or my hot temper but my fierce desire to do right and help those I love",69,144,"chi1976chi","Milton, WV","Milton",38.4359015,-82.1325185,38.435998,-82.133197
"38","As they should....#NeverTrump https://t.co/rjgkwwXRB9","7.82359e+17","en","Sat Oct 01 23:19:20 +0000 2016",2,"Toronto, Ontario","512337775","Senior Customer Representative http://Leodsgn.com Toronto - Canada",126,246,"Johanmns","Toronto, Ontario","Toronto",43.629311,-79.2725695,43.65617513,-79.38046206
"39","RT @: Trump and his media allies are treating Bernie supporters like they're incapable of reasoning for themselves. Truly insultin","7.82359e+17","en","Sat Oct 01 23:19:20 +0000 2016",6,"Atlanta, GA","2458539524","An Atelier For New Choreography, Compositions & Visual Art Led By Alexandre Proia.",101,202,"Proiadance","Atlanta, GA","Atlanta",33.7671945,-84.433106,33.8189515,-84.3512591
"40","Nothing will happen to these punks, they'll get a pass 4 vandalizing &amp; battery against white girl. Racism against w https://t.co/uhSEta0JkD","7.82359e+17","en","Sat Oct 01 23:19:21 +0000 2016",0,"California, USA","7.79082e+17","M4st3r m!nd",5,70,"mountain3ye","Riverside, CA","Riverside",33.935822,-117.397616,33.98557289,-117.3728476
"41","RT @: Clinton camp burns Trump after his Playboy porn past is revealed https://t.co/ncgkP5RdSZ https://t.co/CrPWlLoCbN","7.82359e+17","en","Sat Oct 01 23:19:21 +0000 2016",13,"Bell Gardens","101997403",NA,49,121,"DaveM83","Anaheim, CA","Anaheim",33.842863,-117.851089,33.80696594,-117.9193068
"42","RT @: Do another poll.  AFTER TODAY there will be NO millennial voting for Hillary.  NONE.
#BasementDwellers https://t.co/STAQce44","7.82359e+17","en","Sat Oct 01 23:19:21 +0000 2016",7,"Lodi/Santa Clara CA","393863679","Winegrower of old vine vineyards in the Lodi AVA",221,147,"Zinyard","California, USA","California",37.2691755,-119.3066075,38.19866964,-121.0766662
"43","RT @: I will #UnfollowTrump when Hillary returns money to those hungry, homeless kids in Haiti.. #BasementDwellers https://t.co/XRn0","7.82359e+17","en","Sat Oct 01 23:19:22 +0000 2016",1,"Texas","237086394","Video Games, Music, travel. I love Red Bull and @babydolldarian_ <U+2764><U+FE0F> #UTSA Aspiring DFS Guru",282,139,"ericjames360","San Antonio, TX","San Antonio",29.417501,-98.5406515,29.42642771,-98.48800423
"44","RT @: JUST IN: Eric Trump Busted Funneling Nearly $1 Million In Charity Donations To Dads Golf Courses - https://t.co/U7R5XtIPaF","7.82359e+17","en","Sat Oct 01 23:19:22 +0000 2016",22,"New York","83926356","<U+5F9E><U+5317><U+4EAC><U+5230><U+82F1><U+570B>,<U+5F9E><U+76DB><U+590F><U+5149><U+5E74><U+7684><U+81FA><U+7063><U+5230><U+4E09><U+5E74><U+5F8C><U+7269><U+662F><U+4EBA><U+975E><U+7684><U+9999><U+6E2F>,<U+6211><U+653E><U+68C4><U+4E86><U+91CD><U+56DE><U+8D64><U+9053><U+5F80><U+5317>21<U+5EA6><U+7684><U+65C5><U+884C>,<U+60F3><U+8981><U+5B9A><U+5C45><U+7D10><U+7D04><U+3002>",676,800,"wendymermaid","San Francisco, CA","San Francisco",37.7706565,-122.4359785,37.77948973,-122.4175939
"45","You need to grow up and let things go  people change and that was the past i mean you use to be against gay marria https://t.co/EFQPaBx6vN","7.82359e+17","en","Sat Oct 01 23:19:23 +0000 2016",1,"CharmCity, MD","3185521696",NA,186,275,"embroooks3","Gainesville, VA","Gainesville",38.7922175,-77.6273615,38.78569761,-77.58883782
"46","RT @: Miami Herald deceives its readers by not giving the whole story on Trump's foray into Cuba https://t.co/jHR5YIYrl2 #unfollowt","7.82359e+17","en","Sat Oct 01 23:19:23 +0000 2016",1,"11300 nw 87 ct, suite104 FL","620587630",NA,28,3,"laepocafashion","Hialeah Gardens, FL","Hialeah Gardens",25.8762175,-80.3476035,25.8761,-80.34063
"47","RT @: If you are gay why would you vote for #Hillary who wants to bring in thousands of refugees who believe gays should be exe","7.82359e+17","en","Sat Oct 01 23:19:23 +0000 2016",228,NA,"2688331728",NA,120,6,"BroadSoft_Jobs","Gaithersburg, MD","Gaithersburg",39.136097,-77.2079325,39.1145013,-77.1948084
"48","@  lmao henny&gt; anything else ","7.82359e+17","en","Sat Oct 01 23:19:24 +0000 2016",176,"Medford Oregon","302206097","As a member of the #Lithia #Auto #Stores team, you’ll be part of a company that values you and the work you do. Now #hiring #automotive #professionals!",703,1702,"LithiaJobs","Simi Valley, CA","Simi Valley",34.2673105,-118.731399,34.2694474,-118.781482
"49","RT @: Hillary Clinton got heckled in LA - her campaign rally today lasted less than a minute. 

#Hillary Learning She is ","7.82359e+17","en","Sat Oct 01 23:19:24 +0000 2016",301,"In your area","2535717440","We're looking for people who have a passion for restaurants and a mind for business. If you're looking for a career with us, you’re in the right place!",447,452,"NoodlesCareers","Raleigh, NC","Raleigh",35.8439815,-78.657837,35.7893946,-78.6617019
"50","@ @ That was some sickening sh*t right there!","7.82359e+17","en","Sat Oct 01 23:19:24 +0000 2016",6,"642 miles from Magic Kingdom","22404338","Earth has no sorrow that heaven can't heal.
#TeamScorpio #TeamiPhone",332,1279,"sashay24","Lafayette, LA","Lafayette",30.206079,-92.0611765,30.21568563,-92.02316981
"51","@ HILLARY &amp; OBAMA SENT WEAPONS TO ISIS. WHY? https://t.co/JyLmvTqEiZ","7.82359e+17","en","Sat Oct 01 23:19:25 +0000 2016",4,NA,"342733555","I'm tryna keep my faith",1631,1359,"NicolePedersen1","South Sioux City, NE","South Sioux City",42.459286,-96.4163955,42.4893811,-96.42082521
"52","I can already imagine me being a soccer mom in the future","7.82359e+17","en","Sat Oct 01 23:19:25 +0000 2016",21,"Raleigh, NC","20495698","Do not go where the path may lead, go instead where there is no path and leave a trail. - Ralph Waldo Emerson",160,320,"rttnappl","Raleigh, NC","Raleigh",35.8439815,-78.657837,35.80079945,-78.71910815
"53","@ @ @ That name sounds familiar. Isn't he a anti-video game guy?","7.82359e+17","en","Sat Oct 01 23:19:26 +0000 2016",43,"Las Vegas, NV","3237528804","2016 BBWCON BEST IR SCENE OF THE YEAR winner! @DiamondLou702's Backup Acct. Owner of @D_N_Media 
http://BBWPleasure.com<U+2605>http://MatureOasis.com",11533,857,"DiamondLouX","Paradise, NV","Paradise",36.0609645,-115.135165,36.10431051,-115.1444863
"54","RT @: Guys I'm not even an American and I am terrified at the thought of Trump fuelling his egomania at the worlds expense. Just","7.82359e+17","en","Sat Oct 01 23:19:26 +0000 2016",14,"City of Starlight","1382247194","*:<U+FF65><U+FF9F>to the stars who listen---and the dreams that are answered*:<U+FF65><U+FF9F>",2044,997,"Anna_Lee16","Ann Arbor, MI","Ann Arbor",42.2708395,-83.7299715,42.27676255,-83.73981035
"55","@ this will prove to be the best race of the night I have a feeling.","7.82359e+17","en","Sat Oct 01 23:19:28 +0000 2016",46,"4476 Broadway, NYC 10040","361717258","26 Taps @ 191st and Broadway. Washington Heights/Inwood NYC",1107,1235,"BuddhaBeerBar","Manhattan, NY","Manhattan",40.780709,-73.9685415,40.8573025,-73.9319867
"56","1-0 Caps after 1. #Isles","7.82359e+17","en","Sat Oct 01 23:19:28 +0000 2016",3,"BAY AREA","565152839","finding myself | mchs | sc: mikaylajoyce",482,420,"mikayla_joyce","San Francisco, CA","San Francisco",37.7706565,-122.4359785,37.78202354,-122.4140224
"57","RT @: Congresswoman defends Trumps 5 a.m. sex tweet: Thats the kind of president we need."" https://t.co/kp0pT2FkZZ https://t.co/lQg","7.82359e+17","en","Sat Oct 01 23:19:30 +0000 2016",30,"Raleigh, NC","15001227","husband, dad, writer, minister & prof. director of Campbell U's youth theology institute Fides: Exploring Faith & Vocation. http://brianforemanonline.com",1206,689,"b4man72","Raleigh, NC","Raleigh",35.8439815,-78.657837,35.77686887,-78.639247
"58","Yeah but Alabama is still losing. 

Time to hire Les Miles. He won't be there in  December.","7.82359e+17","en","Sat Oct 01 23:19:30 +0000 2016",75,"San Francisco, CA","96222695","Follow this account for geo-targeted IT-Management (CIO, Director, etc.) job tweets in San Francisco, CA. Need help? Tweet us at @CareerArc!",166,108,"tmj_sfo_itmgmt","San Francisco, CA","San Francisco",37.7706565,-122.4359785,37.7870156,-122.4071835
"59","RT @: Women are opening up a CAN of WhoopA$$ on Trump AKA Mr. UnFIT @ @  @ @ ","7.82359e+17","en","Sat Oct 01 23:19:31 +0000 2016",29,NA,"544608285","Personal IG: @linnperatorfuriosa
Art IG: @senpaitaichou",156,229,"cptnsenpai","Los Angeles, CA","Los Angeles",34.0207895,-118.4119065,34.063157,-118.35791
"60","RT @: 114,000 People Want To Stop Paying Obama While He Stumps For Hillary https://t.co/698LLt0gHn https://t.co/LXL4Yb5gua","7.82359e+17","en","Sat Oct 01 23:19:31 +0000 2016",10,"San Marcos, TX","216912885","Weather updates, forecast, warnings and information for San Marcos, TX. Sources: http://OpenWeatherMap.org, NOAA, USGS.",366,2,"SanMarcosTX","San Marcos, TX","San Marcos",29.8956065,-97.9351915,29.88,-97.94
"61","RT @: Dear Mr. Trump, may I offer you some advice? DON'T TAKE THE BAIT. Let the #Clintons wallow in the mud by themselves. ht","7.82359e+17","en","Sat Oct 01 23:19:31 +0000 2016",71,"Phoenix, AZ","38023469","Follow this account for geo-targeted Other job tweets in Phoenix, AZ. Need help? Tweet us at @CareerArc!",667,540,"tmj_phx_jobs","Phoenix, AZ","Phoenix",33.5528625,-112.1246765,33.4483771,-112.0740373
"62","@ that's on the staff, not the kids. #outcoached #again","7.82359e+17","en","Sat Oct 01 23:19:32 +0000 2016",226,NA,"4715050116","Start something amazing. Now #hiring for #restaurant, #retail, and #theater #jobs throughout the #USA.",118,1,"CareersAMC","Fort Lauderdale, FL","Fort Lauderdale",26.150368,-80.1491725,26.1699903,-80.1150603
"63","The little girl I'm babysitting is staring out the window having a full conversation w someone but there's no one there...  I'm concerned","7.82359e+17","en","Sat Oct 01 23:19:32 +0000 2016",9,"close enough to stl","2486216364",NA,206,208,"jillsiss","Illinois, USA","Illinois",39.7393005,-89.2665075,38.5183347,-90.04111125
"64","Cheers! Every little helps https://t.co/7gU0d4RyfC","7.82359e+17","en","Sat Oct 01 23:19:33 +0000 2016",72,"Durant, OK","328017437","Family practice physician, mother of two, and wife.  Love to travel and experience new things",3595,3978,"MGastorf","Oklahoma, USA","Oklahoma",35.3090465,-98.716992,33.75792117,-97.13169447
"65","RT @: If you #BasementDwellers are voting for Hillary then you're as retarded and dumb as she thinks you are.","7.82359e+17","en","Sat Oct 01 23:19:33 +0000 2016",23,"Philadelphia, PA","395452224","Photographer & Creative | Comics | Penn State Alum | @LadiesShootFilm",727,1472,"LindseyGerstlau","Ambler, PA","Ambler",40.156801,-75.2222375,40.155,-75.22
"66","RT @: Obama tears Donald Trump in 40 seconds. https://t.co/qSwPCvjWGp","7.82359e+17","en","Sat Oct 01 23:19:33 +0000 2016",5,"North Carolina","177728879","The name is Howard, aka Dark_Mousy to the #Beyblade Community. Follow my church @Wsym @BethelChurchNC #TheMove",258,245,"The_Dark_Mousy","Raleigh, NC","Raleigh",35.8439815,-78.657837,35.80518655,-78.56253391
"67","Hillary Clinton trolls Trump with late-night tweets of her own: Hillary Clinton (or her staff... https://t.co/y3EbVwqEtL #politics #news","7.82359e+17","en","Sat Oct 01 23:19:35 +0000 2016",60,"San Francisco, CA","1589692776","This is account is not monitored and is used to post service request update information. To communicate with SF311, please use our main account 'SF311'",133,0,"SF311Reports","San Francisco, CA","San Francisco",37.7706565,-122.4359785,37.749675,-122.404919
"68","Clemson &amp; Louisville about to bit lit ","7.82359e+17","en","Sat Oct 01 23:19:34 +0000 2016",710,"Worldwide","2180751991","Come GROW WITH US! This is our #jobs feed. Follow @KelloggsCareers to connect.",557,1,"KelloggsJobs","Reno, NV","Reno",39.512436,-119.827182,39.5296329,-119.8138027
"69","What Jim said. https://t.co/l39udGzquj","7.82359e+17","en","Sat Oct 01 23:19:36 +0000 2016",6,"texas<U+E308>","184291826","Wife, Mother, Traveler, Life",327,871,"travelermom3","Houston, TX","Houston",29.838495,-95.4464865,29.68472222,-95.41083333
"70","RT @: Donald Trump struggles to deal with debate loss at day-after rally https://t.co/wwdC7x5saD","7.82359e+17","en","Sat Oct 01 23:19:36 +0000 2016",208,"New York State","50706690","Traffic & transit updates for all of New York State provided by New York State 511. Visit the website for more feeds.",1502,205,"511NY","Manhattan, NY","Manhattan",40.780709,-73.9685415,40.7883,-73.9287
"71","RT @:  #WakeUpAmerica 

#Hillary #Clinton doesn't care about #BlackLives She only cares about #BlackVotes ","7.82359e+17","en","Sat Oct 01 23:19:37 +0000 2016",0,"Hollister, CA","4781478312","We offer Dance, Music, & Theater for all ages! Check out our Competition Team & Summer Camps! (831) 635-0553 #ipaacademy618",22,28,"ipaacademy618","California, USA","California",37.2691755,-119.3066075,36.7696144,-121.3041967
"72","RT @: ugh. this is incredibly misleading,
@. she's clearly saying she gets why bernie's supporters are frustrated: https:/","7.82359e+17","en","Sat Oct 01 23:19:37 +0000 2016",194,"Lehigh Valley, Pa","17364883","A satirical blog on current events in the Allentown, Bethlehem and Easton areas. The Lehigh Valley.",6863,2579,"LVwithLove","Bethlehem, PA","Bethlehem",40.6252755,-75.3671965,40.61460128,-75.36939516
"73","Wilson in his pregame interview ruled Feeney out this week and says Camiel had back surgery and will miss a couple weeks #iufb","7.82359e+17","en","Sat Oct 01 23:19:37 +0000 2016",60,"San Francisco, CA","1589692776","This is account is not monitored and is used to post service request update information. To communicate with SF311, please use our main account 'SF311'",133,0,"SF311Reports","San Francisco, CA","San Francisco",37.7706565,-122.4359785,37.750407,-122.406475
"74","@ #Hillary has her problems, but #Trump has a big one: He's a #liar","7.82359e+17","en","Sat Oct 01 23:19:38 +0000 2016",90,"Miami-Usa","88860776","TV Executive, Producer and Creator. Suelta la Sopa, Confesiones d Novela, Chef Carmen, Sabrosa Pasion, Ranking d Estrellas, Misterio's, El Cabaret, Michy.",8175,504,"carlosmesber","Miami, FL","Miami",25.7823535,-80.2333285,25.7877,-80.2241
"75","RT @: Isn't it interesting Hillary called young black males ""super-predators"" when she knowingly married one and became h ","7.82359e+17","en","Sat Oct 01 23:19:38 +0000 2016",0,"San Antonio, TX & Orlando,FL ","52315128","Beauty advisor for Estee lauder and clinique templetx  San AntonioTx AustinTx  orlandoFL",161,846,"jefe254","Corpus Christi, TX","Corpus Christi",27.737151,-97.432425,27.80714624,-97.39328397
"76","@ @ @ I recommend to take notes on Twitter. I always respond. 1 of their assignment is to make a Storify.","7.82359e+17","en","Sat Oct 01 23:19:38 +0000 2016",41,NA,"394234622","Some women are lost in the fire. Some women are built from it. Once an Olympian, Always an Olympian. Never Former.",3100,409,"KristyKowal","San Francisco, CA","San Francisco",37.7706565,-122.4359785,37.80908966,-122.4727014
"77","The weed is better in Colorado.","7.82359e+17","en","Sat Oct 01 23:19:39 +0000 2016",5,NA,"309318438","#teamiphone #teamfollowback #teamrace2abill #teamblindside #teamsingle #teamhoeknapper #teamnosleep #raidernation #teamfreaknasty",419,756,"race2abill","Georgia, USA","Georgia",32.6782075,-83.1738665,33.6898501,-84.94756044
"78","last RT still gets to me ","7.82359e+17","en","Sat Oct 01 23:19:40 +0000 2016",91,"Petaluma, CA","128454800","craft beer... nuff said",1775,513,"petalumahills","Petaluma, CA","Petaluma",38.244454,-122.6333695,38.2721214,-122.6639328
"79","FOLLOW MY GIRL @ @ PLEASE SHE BEEN A FAN SINCE THE BEGINNING DO IT YO ALSO DATE THE MOTHERFUCKING HOE MAN","7.82359e+17","en","Sat Oct 01 23:19:40 +0000 2016",5,"Toledo, OH","137872219","Weather updates, forecast, warnings and information for Toledo, OH. Sources: http://OpenWeatherMap.org, NOAA, USGS.",41,5,"_ToledoOH","Toledo, OH","Toledo",41.6565905,-83.574671,41.66,-83.56
"80","RT @: Wow, just saw the really bad @ ratings. People don't want to watch bad product that only builds up Crooked Hillary.","7.82359e+17","en","Sat Oct 01 23:19:40 +0000 2016",244,"Coast to Coast","2651294322","Retail, food service, tire shop, trucking, hotel & corporate #jobs. Follow @LovesCareers to learn about culture, career development and community involvement.",119,7,"LovesJobs","St Paul, MN","St Paul",44.9415155,-93.1056485,44.9513188,-93.0901841
"81","I looked like an investigator didn't I? https://t.co/ON4lTC21Sc","7.82359e+17","en","Sat Oct 01 23:19:40 +0000 2016",70,"Albuquerque, NM","22644503","Follow this account for geo-targeted Hospitality/Restaurant/Tourism job tweets in Albuquerque, NM. Need help? Tweet us at @CareerArc!",396,283,"tmj_abq_hrta","Albuquerque, NM","Albuquerque",35.1170025,-106.632718,35.1974494,-106.6564673
"82","@ @   Beautiful!  ","7.82359e+17","en","Sat Oct 01 23:19:40 +0000 2016",76,NA,"759953168",NA,26,0,"JoinMENTORNetwk","Washington, PA","Washington",40.1662525,-80.2680565,40.17396,-80.2461714
"83","@ ""Dont like a woman? Just mock them for not looking like your feminine ideal!"" - The Trump Method, vol 14","7.82359e+17","en","Sat Oct 01 23:19:40 +0000 2016",341,NA,"2377573225",NA,373,0,"WorkAtBJs","Cary, NC","Cary",35.7561885,-78.837021,35.7556764,-78.7435332
"84","Latre puts up with me and my bullshit, weirdness, silliness, and everything  #ThatsARealFriend ","7.82359e+17","en","Sat Oct 01 23:19:41 +0000 2016",46,"Washington Non-Metro","395577781","Follow this account for geo-targeted Veteran job tweets in Washington Non-Metro. Need help? Tweet us at @CareerArc!",156,125,"tmj_wa_vets","Washington, USA","Washington",47.273022,-120.882482,46.2775138,-117.814262
"85","RT @: WOW Jus heard Bern Will B Campaigning 4 Hillary Clinton in Iowa!??Hes Ok wit Her calling his supporters ","7.82359e+17","en","Sat Oct 01 23:19:41 +0000 2016",41,"San Jose, CA","22740845","Follow this account for geo-targeted General Labor job tweets in San Jose, CA. Need help? Tweet us at @CareerArc!",324,294,"tmj_sjc_labor","Morgan Hill, CA","Morgan Hill",37.128857,-121.6417365,37.1305012,-121.6543901
"86","RT @: LA doesn't seem to like Hillary Clinton..her campaign rally today lasted less than a minute. This is over half of it https:/","7.82359e+17","en","Sat Oct 01 23:19:41 +0000 2016",35,"Vancouver, Canada","550206235","Vancouver-based beer and food enthusiast",699,386,"foodandbier","Victoria, British Columbia","Victoria",48.4267305,-123.3583795,48.4287,-123.366
"87","REMEMBER THIS ONE?? AND GOT 1 OUT OF 3 BLACK MALES ARRESTED- A FAILURE! BILL CLINTON AGAIN. MARRIED TO HILLARY IN C https://t.co/8sc1twQeWK","7.82359e+17","en","Sat Oct 01 23:19:42 +0000 2016",4,"Bronx, NY","31906650","Actress, Comedienne, Student of Improvisation, Loves to Laugh",140,222,"ElkeTV","Manhattan, NY","Manhattan",40.780709,-73.9685415,40.7895531,-73.93704809
"88","RT @: Hannity finished Sept as number 1 we all know it's because Hannity puts the USA first stop Hillary vote Trump https://t.","7.82359e+17","en","Sat Oct 01 23:19:42 +0000 2016",4,"Hawthorne, CA","1397446375","Singer / Actor",65,178,"Mac51688","Alondra Park, CA","Alondra Park",33.8895235,-118.335142,33.88139165,-118.3333122
"89","RT @: In tomorrow's news: Donald Trump gets into Twitter war with girl at KFC drive through window, refuses to pay for spicy ch","7.82359e+17","en","Sat Oct 01 23:19:42 +0000 2016",2,"Michigan","369872457","BMX. Kayak. Minecraft. Anime. Electronic music. Video games.",41,158,"Hypnotic800","Fenton, MI","Fenton",42.7968745,-83.7464235,42.7976,-83.7042
"90","My daughter trying out fraction games and investigations with me after my Saturday math training. #VUSDmath https://t.co/CBzWeOhlWQ","7.82359e+17","en","Sat Oct 01 23:19:44 +0000 2016",16,"Littleton, Colorado","25573199","B.S. Sports Management. Aninal Rescue. F.R.I.E.N.D.S..Country Music.Rockies.Cubs.Broncos.Avs.DU Hockey.Gymnastics.",444,1412,"JessLynne007","Littleton, CO","Littleton",39.596849,-105.017787,39.57892415,-105.0483352
"91","JActs1631: JActs1631: JActs1631: JActs1631: JActs1631: JActs1631: JActs1631: JActs1631: RT TeamTrump:  LEAKED AUD https://t.co/BGs6LO3esT","7.82359e+17","en","Sat Oct 01 23:19:46 +0000 2016",5,"Ellisville, MO","149762612",NA,47,93,"BlueBrained","Westerly, RI","Westerly",41.3690285,-71.789392,41.3801,-71.83
"92","RT @: Against protocol, Hillary gave Sidney Blumenthal - who had no security clearance - access to above-top-secret NSA d ","7.82359e+17","en","Sat Oct 01 23:19:47 +0000 2016",2,"Small Town, USA","1451628930","I'm the oldest I've ever been.....Right now!",81,403,"BCWitmer","Colorado, USA","Colorado",38.997936,-105.5508905,40.33020786,-106.8931988
"93","#basementdwellers  The actual words and spin on Hillary Clintons remarks about Bernie Sanders supporters https://t.co/2CS2SlRSkN","7.82359e+17","en","Sat Oct 01 23:19:47 +0000 2016",4,"NYC","109031362","New York nerd that wanders around from place to place.",51,235,"AshleyNGibbs","Brooklyn, NY","Brooklyn",40.655138,-73.9487755,40.69073016,-73.98496284
"94","@ between California and Washington out west.","7.82359e+17","en","Sat Oct 01 23:19:47 +0000 2016",0,"Rio Rancho, New Mexico","2902908582","Motorcycle Hearse Company/Urns/Keepsakes and apparel",80,230,"DbcmagHearse","Albuquerque, NM","Albuquerque",35.1170025,-106.632718,35.18413648,-106.5896
"95","I wana go to the fair...","7.82359e+17","en","Sat Oct 01 23:19:48 +0000 2016",6,"United States","252672450","tweeting whatever with dogs and stuff",161,133,"SumantaMuth","Long Beach, CA","Long Beach",33.8091715,-118.1567105,33.8041,-118.158
"96","RT @: Typical Hillary #BasementDwellers https://t.co/irWy8jZV0Y","7.82359e+17","en","Sat Oct 01 23:19:48 +0000 2016",15,"Los Angeles, CA","1343533711","SAG-AFTRA Pro Dancer. Choreographer. Bloc LA. WBFF Diva Bikini Pro. Zumba-Dance Fitness Instructor. NASM CPT. @afrofitfusion Kaleila.Jordan@gmail.com",3242,424,"KaleilaJ","Los Angeles, CA","Los Angeles",34.0207895,-118.4119065,34.0522,-118.243
"97","Hillary Clinton trolls Trump with late-night tweets of her own: Hillary Clinton (or her staff) took a moment ... https://t.co/29So5irBIg","7.82359e+17","en","Sat Oct 01 23:19:48 +0000 2016",3,"buffalo to philadelphia","3000839909","Bills. Yankees. Sabres. Blue Devils.",94,332,"b_doyle_88","Princeton, NJ","Princeton",40.34965,-74.665028,40.35044584,-74.66005555
"98","My heart may be broken &amp; my mind all confused .. but through it all I have victory ","7.82359e+17","en","Sat Oct 01 23:19:48 +0000 2016",0,NA,"554841537",NA,40,161,"evilgeniusbrews","Kentucky, USA","Kentucky",37.822244,-85.7682405,38.0298,-84.4911
"99","@ magic will","7.82359e+17","en","Sat Oct 01 23:19:48 +0000 2016",3,"lake george university '17","572223430","19 <U+27B3><U+2741> New York.. not the city",917,871,"gwenelizabethhh","New York, USA","New York",42.746617,-75.770041,43.552375,-73.39648805
"100","@ lol I'm just asking","7.82359e+17","en","Sat Oct 01 23:19:49 +0000 2016",5,"Mansfield, OH","213488493","Weather updates, forecast, warnings and information for Mansfield, OH. Sources: http://OpenWeatherMap.org, NOAA, USGS.",80,69,"MansfieldOH","Mansfield, OH","Mansfield",40.748333,-82.475571,40.76,-82.52
"101","RT @: Trump on Clinton: 'I can be nastier than she ever can be' @ https://t.co/uNVPLBv5E5","7.82359e+17","en","Sat Oct 01 23:19:49 +0000 2016",3,"The Jungle","95484213","Big dreams, Good music & Expensive taste.",665,302,"OvoxoBrisa","West Des Moines, IA","West Des Moines",41.5642575,-93.774755,41.569722,-93.80457401
"102","RT @: You may not know it, but youve been taught to empathize with white men all your life. This election, that matters. https:","7.82359e+17","en","Sat Oct 01 23:19:50 +0000 2016",24,"Reno, NV","120814597","Follow this account for geo-targeted Healthcare-Nursing job tweets in Reno, NV. Need help? Tweet us at @CareerArc!",337,284,"tmj_NVR_NURSING","Portola, CA","Portola",39.810659,-120.466344,39.8104567,-120.4691034
"103","@ yea it was weird","7.82359e+17","en","Sat Oct 01 23:19:50 +0000 2016",662,"National","141302910","Kindred Healthcare, named a Fortune Magazine Most Admired Company, is the largest provider of post-acute care services in the United States.",910,0,"Kindred_Jobs","San Mateo, CA","San Mateo",37.552481,-122.3154215,37.5629917,-122.3255254
"104","RT @: The press is dying. Not just the internet, but frustration with its propaganda slant. https://t.co/UPlNn0fYDa","7.82359e+17","en","Sat Oct 01 23:19:50 +0000 2016",48,"San Diego, CA","23499476","Follow this account for geo-targeted Transportation job tweets in San Diego, CA. Need help? Tweet us at @CareerArc!",354,296,"tmj_san_transp","San Diego, CA","San Diego",32.810012,-117.104989,32.715738,-117.1610838
"105","RT @: Somehow this seems different from the Times' coverage of lives saved by the Clinton Foundation. https://t.co/AN9VGgR7nL","7.82359e+17","en","Sat Oct 01 23:19:50 +0000 2016",328,NA,"1860798708","One of nation's largest providers of Emergency Medicine,Hospital Medicine,Anesthesia,Acute Care Surgery,OB/GYN Hospitalist & Orthopaedic Hospitalists services.",396,124,"JoinTeamHealth","Rome, GA","Rome",34.2667455,-85.1939275,34.257038,-85.1646726
"106","God dammit I got blocked again ","7.82359e+17","en","Sat Oct 01 23:19:50 +0000 2016",107,"Denver, CO","22487719","Follow this account for geo-targeted Hospitality/Restaurant/Tourism job tweets in Denver, CO. Need help? Tweet us at @CareerArc!",547,286,"tmj_den_hrta","Denver, CO","Denver",39.713563,-104.9220935,39.7502075,-104.9990136
"107","Trump finding traction on Dems' property https://t.co/wCwwfj5IoZ","7.82359e+17","en","Sat Oct 01 23:19:51 +0000 2016",92,"Denver, CO","38022609","Follow this account for geo-targeted Other job tweets in Denver, CO. Need help? Tweet us at @CareerArc!",978,539,"tmj_den_jobs","Greenwood Village, CO","Greenwood Village",39.620282,-104.9238215,39.6172101,-104.9508141
"108","RT @: @ - did you forget to cover the story that your own network fat-shamed Alicia Machado? Your network is pathetic. ","7.82359e+17","en","Sat Oct 01 23:19:51 +0000 2016",92,"Scottsdale, AZ","113255487","Follow this account for geo-targeted Software Dev. - General/IT job tweets in Scottsdale, AZ. Need help? Tweet us at @CareerArc!",377,310,"tmj_AZS_it","Scottsdale, AZ","Scottsdale",33.63934,-111.8583985,33.4941704,-111.9260519
"109","New episode of @ is TOMORROW! I can't wait!  @ @ @ @ @ #Quantico","7.82359e+17","en","Sat Oct 01 23:19:52 +0000 2016",9,"memphis---indianapolis","230806704","university of louisville cheerleader",1052,1038,"sydnienewby","Oxford, MS","Oxford",34.35467,-89.53377,34.361944,-89.534167
"110","RT @: So if mr Trump did call her piggy. Does that compare to all the lives ms Hillary cost. It's not what you says its what you","7.82359e+17","en","Sat Oct 01 23:19:52 +0000 2016",4,"Waterford, MI","269712298",NA,23,39,"mmeyers68","Grand Rapids, MI","Grand Rapids",42.9564115,-85.6411415,42.9631,-85.6704
"111","@ The next time u r on @ could you explain why we're always talking about amendments but not the actual constitution?","7.82359e+17","en","Sat Oct 01 23:19:53 +0000 2016",4,"pas loin de Montreal ","15021094","J'roule électrique et zythologue en devenir.  Pour le reste, je suis ni à gauche, ni à droite... j'essaye de rester au dessus (...)",207,808,"isohumulone","Montréal, Québec","Montréal",45.5578305,-73.723025,45.5233,-73.5819
"112","RT @: I'm so excited!!!#SNLPremiere #KateMcKinnon #Hillary #DebateNight https://t.co/4R09Aq4ZvC","7.82359e+17","en","Sat Oct 01 23:19:53 +0000 2016",241,"Menomonee Falls, WI","4443789433","Since 1965, Herzing University has created a legacy of student-focused education. We invite you to join us in our mission to help students achieve their goals.",85,218,"HerzingCareers","Menomonee Falls, WI","Menomonee Falls",43.1482635,-88.124513,43.1788967,-88.1173132
"113","#ICYMI .@: Hillary Clinton trolls Trump with late-night tweets of her own https://t.co/B1g4tJu071","7.82359e+17","en","Sat Oct 01 23:19:53 +0000 2016",325,"USA","1180025371","Information about Twitter's #TrendingTopics in the United States of America #trndnl",10342,58,"trendinaliaUS","Washington, DC","Washington",38.898603,-77.0143985,38.8991,-77.029
"114","@ u ded or live?","7.82359e+17","en","Sat Oct 01 23:19:54 +0000 2016",0,NA,"342254845",NA,17,46,"ONunez_UnoCinco","Portland, OR","Portland",45.536402,-122.630908,45.5317,-122.66777
"115","@ Thanks, see you in the morning @ #WGM16","7.82359e+17","en","Sat Oct 01 23:19:56 +0000 2016",6,"Saugus, MA","4645195817",NA,56,255,"hopaholic83","Malden, MA","Malden",42.428694,-71.054857,42.4244,-71.0747
"116","Donald Trump Demands President Obama Not Pardon the Witch #news https://t.co/rKb9on7gpu","7.82359e+17","en","Sat Oct 01 23:19:56 +0000 2016",7,"San Antonio, Texas","70221119","A work in progress <U+2763>",424,756,"mackenziee24","Houston, TX","Houston",29.838495,-95.4464865,29.77032,-95.41543
"117","#la Hillary Clinton trolls Trump with late-night tweets of her own: Hillary Clinton (or her staff) took a... https://t.co/ID4KOy6Whs #p2","7.82359e+17","en","Sat Oct 01 23:19:57 +0000 2016",2,"Brunswick, Germany","220857323","Weather updates, forecast, warnings and information for Brunswick, Germany. Sources: http://OpenWeatherMap.org, USGS.",12,19,"BrunswickDE","Brunswick, GA","Brunswick",31.2144885,-81.504908,31.15,-81.49
"118","RT @: I couldn't agree with this more even if I tried. There are no logical reasons to vote Trump do they twist her words ","7.82359e+17","en","Sat Oct 01 23:19:57 +0000 2016",4,"Gahanna, OH","22280267","Hair Stylist/Independent Business Owner 101 Mill St Suite 210       molliealban@yudusalons.com       Salon 8 Cuts, Color, and Styles",286,688,"mollie_alban","Gahanna, OH","Gahanna",40.021793,-82.8541995,40.0199,-82.87976
"119","RT @: #BreakingNews: $GPDB MoneyTV with Donald Baillargeon, 5/6 @ https://t.co/4PfOc2MPcl","7.82359e+17","en","Sat Oct 01 23:19:57 +0000 2016",52,"houston, texas","303567415","Senior Designer @Rigsby_Hull, Principal @ThinkCarmen, Founder of @KhombleProject, & CreativeMornings Houston Host @CM_Hou",357,291,"thinkCARMEN","Houston, TX","Houston",29.838495,-95.4464865,29.718833,-95.41654
"120","RT @: Just as she promised 200,000 jobs to NY then caused a loss of 25,000 jobs. https://t.co/0QubUcmBzs","7.82359e+17","en","Sat Oct 01 23:19:57 +0000 2016",33,"New Orleans, LA","99209645","creative.",1103,593,"DapperDonDior","Denver, CO","Denver",39.713563,-104.9220935,39.656059,-104.8993079
"121","RT @: #LoveTrumpsHateBecause b/c Vile Hillary Clinton Threatened The LIFE of Kathleen Willey, HER CHILDREN &amp; Many Others!! ht","7.82359e+17","en","Sat Oct 01 23:19:58 +0000 2016",71,"Powder Springs, GA","327529234","#Bravesfan, #cardcollector #glutenfree #Psychology",1945,1002,"SlmSolo","Atlanta, GA","Atlanta",33.7671945,-84.433106,33.73573894,-84.38943425
"122","RT @: Just imagine the destruction if she is POTUS

The List: 27 Countries Destroyed By Hillary Clinton's Neocon 'Hubris' htt","7.82359e+17","en","Sat Oct 01 23:19:58 +0000 2016",1,"Twin Cities, MN","258225358","Clowns to the left,
Jokers to the right,
Stuck in the Middle... Age",112,343,"rickilou","Stillwater, MN","Stillwater",45.0577805,-92.827994,45.0552,-92.8186
"123","RT @: Time-lapse: Thousands line up to see Trump in Manheim, Pennsylvania hours before rally scheduled to begin. #MAGA https://","7.82359e+17","en","Sat Oct 01 23:19:58 +0000 2016",96,"NYC|LONDON|COL","271277157","Lifetyle, Fashion + Travel Influencer! Founder of http://OwnByFemme.com... Rene@ownbyfemme.com to connect!",3203,985,"OwnByFemme","California, USA","California",37.2691755,-119.3066075,36.01,-121.5183333
"124","RT @: As a woman, I agree with a ""timeout."" Read why Trump has a challenge with white women: You just want to smack him https","7.82359e+17","en","Sat Oct 01 23:19:58 +0000 2016",2,NA,"4804314013","runner, novice guitarist, music lover, penguin/cub fan.",43,219,"runrandolphrun","Pekin, IL","Pekin",40.565021,-89.6262705,40.55676,-89.6548
"125","RT @: The Dirt is Finally Coming out. This should have happened months ago. But the Media is Fearful of Trump.. Gone to F ","7.82359e+17","en","Sat Oct 01 23:19:58 +0000 2016",0,"Dallas","1672977306","Foodie and Restaurant Groupie",40,39,"AenkiEats","Dallas, TX","Dallas",32.8198585,-96.7617535,32.86327,-96.80634
"126","The Most Powerful Anti-Hillary Ad Yet https://t.co/uwgJmxOhMt","7.82359e+17","en","Sat Oct 01 23:19:59 +0000 2016",95,"Houston, Texas","27713668","I'm not a businessman, I'm a BUSINESS, man! | Delivering the HIGHEST level of service is my goal | Ambassador for #Texas | Mobil: 281.924.4954",956,413,"BrooksandDavis","Houston, TX","Houston",29.838495,-95.4464865,29.68470757,-95.4106426
"127","Matt said he has to fight for my attention because I was sitting by you talking &amp; he was like 'tf is that her girlfriend now?' ","7.82359e+17","en","Sat Oct 01 23:20:00 +0000 2016",0,"Edinburg, TX","3238158587","Established 1991 the Edinburg North Color Guard has a long, rich history.",33,61,"EdinburgNorthCG","Texas, USA","Texas",31.1688935,-100.0768885,26.25184854,-98.48266463
"128","People make the world go round #SweetChristmas #LukeCage","7.82359e+17","en","Sat Oct 01 23:20:00 +0000 2016",11,NA,"889795274","subversive",29,83,"tayralucero","Bronx, NY","Bronx",40.8503475,-73.8494415,40.88471249,-73.89974985
"129","RT @: @ Hillary Clinton got heckled in LA - her campaign rally today lasted less than a minute. https://t.co/40cb5EeI17","7.82359e+17","en","Sat Oct 01 23:20:00 +0000 2016",20,"NYC","277463164","I'm a full time dad and a life coach. My goal is to be the best dad I can be and also help as many people as possible to live a healthy fullfilling lifestyle.",565,441,"TonyFernandez71","Lynbrook, NY","Lynbrook",40.6573505,-73.673237,40.65574736,-73.67175729
"130","RT @: Trump has ""stopped, essentially stopped, holding news conferences"" --@ https://t.co/q3PM7mPLx6","7.82359e+17","en","Sat Oct 01 23:20:00 +0000 2016",0,NA,"365215151","head in the clouds, but my gravity's centered",546,405,"kailz_21","Knoxville, TN","Knoxville",35.9824705,-83.9638415,35.9548989,-83.92889591
"131","Kirby Smart gone cry in the locker room","7.82359e+17","en","Sat Oct 01 23:20:00 +0000 2016",351,"Menlo Park, CA","785251808","Accountemps is the largest temporary staffing firm specializing in accounting and finance. See all their Jobs and openings right here.",179,7,"AccountempsJobs","Robesonia, PA","Robesonia",40.3489145,-76.137599,40.3517591,-76.134389
"132","@ Lol sorry, it's just that I said exactly what you said here about kick-six then so that's where bar is set for comparison for me","7.82359e+17","en","Sat Oct 01 23:20:00 +0000 2016",16,"Huntington WV","781235443","I once started a Twitter fight between Donald Trump and Mark Cuban. In Jesus name, boogity, boogity, boogity, amen.",1480,894,"J4K9FLATLEY","Pittsburgh, PA","Pittsburgh",40.431389,-79.9806895,40.447,-80.0156
"133","Kentucky's jersey sleeves somehow make me hungry for a gyro. #MediterraneanTableCloth","7.82359e+17","en","Sat Oct 01 23:20:00 +0000 2016",60,"San Francisco, CA","1589692776","This is account is not monitored and is used to post service request update information. To communicate with SF311, please use our main account 'SF311'",133,0,"SF311Reports","San Francisco, CA","San Francisco",37.7706565,-122.4359785,37.743619,-122.476956
"134","RT @: #LoveTrumpsHateBecause well, Hillary tends to cough off questions in 2008 to avoid answering just  like she does in ","7.82359e+17","en","Sat Oct 01 23:20:01 +0000 2016",41,"Scottsdale, AZ","28848376","Follow this account for geo-targeted Insurance job tweets in Scottsdale, AZ. Need help? Tweet us at @CareerArc!",137,98,"tmj_azs_ins","Phoenix, AZ","Phoenix",33.5528625,-112.1246765,33.4483771,-112.0740373
"135","RT @: VIDEO=&gt; Sick Hillary Can Barely Walk Down a Few Steps at Small FL Rally #RedNationRising #HillarysHealth  https://t.co","7.82359e+17","en","Sat Oct 01 23:20:01 +0000 2016",23,"Uptown Whittier","34103929","Jack Of All Trades, Master Of None",1174,122,"VonBadsville","Rosemead, CA","Rosemead",34.0648205,-118.081943,34.0627649,-118.0988899
"136","RT @: He wants poll violence on the news to create the impression of chaos and untrustworthy election results. https://t.co/","7.82359e+17","en","Sat Oct 01 23:20:01 +0000 2016",13,"Crab Orchard, Ky.","115110145","To find the up to date weather conditions im my little town and the Cedar Creek Lake area, go to http://www.kbweather.net.",85,18,"AppaloosaGuy","Kentucky, USA","Kentucky",37.822244,-85.7682405,37.47472222,-84.51194444
"137","RT @: ""It was overwhelming, in every sense of that word."" Betsy, Hillary's oldest friend, on casting the Illinois delega ","7.82359e+17","en","Sat Oct 01 23:20:02 +0000 2016",3,"Co.Durham, UK","46158727","'I'm in love with cities I've never been to and people I've never met.'",80,774,"SophRamshaw","Manhattan, NY","Manhattan",40.780709,-73.9685415,40.71284553,-74.01351362
"138","JActs1631: JActs1631: JActs1631: JActs1631: JActs1631: JActs1631: JActs1631: JActs1631: RT KellyannePolls: Trump h https://t.co/6snvRvFFyp","7.82359e+17","en","Sat Oct 01 23:20:03 +0000 2016",58,"Fresno, CA","22724087","Follow this account for geo-targeted Hospitality/Restaurant/Tourism job tweets in Fresno, CA. Need help? Tweet us at @CareerArc!",335,283,"tmj_fre_hrta","Fresno, CA","Fresno",36.786042,-119.7824645,36.8487861,-119.7896594
"139","EXCLUSIVE : Hillary must NEVER become President , Says The Woman Who Exposed Bills Affair With Monica https://t.co/QdCqtDPTtc #Hillary","7.82359e+17","en","Sat Oct 01 23:20:04 +0000 2016",1,"Roebling, NJ","497755263","Living the dream. Flyers, Eagles,Phillies, and Sixers fanatic. Craft beer, history and country music",31,159,"Marino0612Matt","Mount Holly, NJ","Mount Holly",39.9952965,-74.786966,39.9912,-74.8005
"140","Hillary Clinton trolls Trump with late-night tweets of her own https://t.co/0i5eR8PORo [DailyKos]","7.82359e+17","en","Sat Oct 01 23:20:04 +0000 2016",42,"California, USA","54463831","Californian storm chaser/spotter. Love to hang out with friends/family. Stormy weather gives me adrenaline rush! My IG: https://websta.me/n/54stormywill54",1048,1238,"54stormywill54","San Jose, CA","San Jose",37.331159,-121.8737305,37.31282106,-121.7913762
"141","RT @: #Deplorables deserve Trump's taxes to know how he made his money. Same reason #BasementDwellers deserve Hillary's W ","7.82359e+17","en","Sat Oct 01 23:20:04 +0000 2016",384,"Menlo Park, CA","785315365","OfficeTeam is the world's leader in professional staffing for office support jobs. A Robert Half Company.",183,8,"OfficeTeamJobs","Minnesota, USA","Minnesota",46.4418605,-93.3613205,46.8231017,-92.2248438
"142","31-10 at halftime, we lit","7.82359e+17","en","Sat Oct 01 23:20:04 +0000 2016",570,NA,"2842684723","The Destination Hotels collection includes award-winning hotels & resorts in premier vacation destinations around the U.S. Check here for open jobs. #hiring",323,2,"DestinationJobs","Cle Elum, WA","Cle Elum",47.1977075,-120.941411,47.1953976,-120.939249
"143","@ Yuuuuge Trump rally tonite in Manheim PA...cant wait to see you Donald #MAGA #basketofdeplrables PA for Trump all the way!!","7.82359e+17","en","Sat Oct 01 23:20:04 +0000 2016",265,"Toronto, Ontario, Canada","16270679","Toronto Fire Active Incidents.  NOT affiliated with Toronto Fire Dept. or City of Toronto.",6976,12,"tofire","Toronto, Ontario","Toronto",43.629311,-79.2725695,43.7810392,-79.4447201
"144","So @ thinks it's all good for him to shoot his own people but once the cops do it's the end of the world?fake ass https://t.co/2vMBxq4Xi5","7.82359e+17","en","Sat Oct 01 23:20:04 +0000 2016",265,"Toronto, Ontario, Canada","16270679","Toronto Fire Active Incidents.  NOT affiliated with Toronto Fire Dept. or City of Toronto.",6976,12,"tofire","Toronto, Ontario","Toronto",43.629311,-79.2725695,43.6570349,-79.3812112
"145","RT @: Fact: Clintons made money on NAFTA
Fact: NAFTA destroyed the middle class.
Fact: Hillary thinks the middle class are #Ba","7.82359e+17","en","Sat Oct 01 23:20:05 +0000 2016",114,"United States","29807088","It doesn't matter who we are... what matters is our plan. RT <U+2260> Endorsement #USC #49ers #MUFC",1373,1165,"John_R_Scott","Puerto Peñasco, Sonora","Puerto Peñasco",31.5321205,-113.2091345,31.302667,-113.533659
"146","When the wifi goes out and you have to resort to real tv... #firstworldproblems","7.82359e+17","en","Sat Oct 01 23:20:05 +0000 2016",151,"Toronto, Ontario, Canada","18409851","Toronto Fire South Command Active Incidents.  Not affiliated with Toronto Fire Department or the City of Toronto.",4400,8,"tofireS","Toronto, Ontario","Toronto",43.629311,-79.2725695,43.6570349,-79.3812112
"147","RT @: Media acting like Hillary had nothing to do with Bill's sex scandals. She was INVOLVED https://t.co/51bxQqdjre","7.82359e+17","en","Sat Oct 01 23:20:05 +0000 2016",1,"South Lyon ","2825404322","SLHS volleyball // Snapchat: jillianm10",244,339,"Jillianmck10","Nantucket, MA","Nantucket",41.270788,-70.087199,41.28449891,-70.09616879
"148","Have you ever seen more of a pussy than Bernie Sanders? The more the Clintons defile him, the more he kisses their tails","7.82359e+17","en","Sat Oct 01 23:20:05 +0000 2016",60,"California","16182412","Who am I? Entrepreneur, Giver of Love, Actress, Ceramic Artist, writer, Girl Who Codes, hugaholic, bi-polar, essential tremors, world changer, Helper #TWDFamily",894,1319,"MorningMist","Orange, CA","Orange",33.810159,-117.824049,33.80899769,-117.8354386
"149","@ @ Naw. UT will flame out in majestic fashion.","7.82359e+17","en","Sat Oct 01 23:20:06 +0000 2016",7,"Arizona, USA","400523570","Snapchat & instagram~ Yelgari~ fashion is everywhere, own it - fashion/travel blogger",120,384,"Yeraldin_Lerma","Paradise, NV","Paradise",36.0609645,-115.135165,36.11654382,-115.174763
"150","Heartless https://t.co/St9Qdr1aaz","7.82359e+17","en","Sat Oct 01 23:20:07 +0000 2016",10,"Milwaukee","114923204","I love my wife Rebecca and son Porter. Former Radio DJ who loves lifting, cuban cigars, sushi, WuTang, Larry Allen73 , Bo, JR. Cash, Butkus, 23, 34 and Ditka",527,518,"zachbyrne","Wisconsin, USA","Wisconsin",44.900818,-89.5694915,42.8078,-87.9242
"151","Hillary Clinton trolls Trump with late-night tweets of her own https://t.co/8LWqST0XnJ [DailyKos]","7.82359e+17","en","Sat Oct 01 23:20:07 +0000 2016",30,"Hatboro, PA","6513942","Professional kegelcise coach. Tense and relax.",389,960,"HereIsMyHandle","Maryland, USA","Maryland",38.8051145,-77.2369685,39.458872,-75.989974
"152","RT @: Delete your account. https://t.co/Oa92sncRQY","7.82359e+17","en","Sat Oct 01 23:20:07 +0000 2016",5,"Pasadena, CA","2374128115","Enbroaden is a digital creative agency. Never average, we only make exceptional digital products and campaigns for web, mobile, and emerging platforms.",7,13,"Enbroaden","Pasadena, CA","Pasadena",34.17731,-118.131964,34.1561,-118.132
"153","@ Ok, mention them. @ does things to promote Donald Trump, not out of the goodness of his heart, if he has one.","7.82359e+17","en","Sat Oct 01 23:20:07 +0000 2016",9,"Denton, TX","41375187","Lorem Khaled Ipsum",147,338,"erikklein","Denton, TX","Denton",33.2024955,-97.1147705,33.20396396,-97.15928989
"154","Successful second college game  #BCcheer https://t.co/LXfewqgZah","7.82359e+17","en","Sat Oct 01 23:20:08 +0000 2016",73,"Seattle by way of New Zealand.","24132955","Music maker. Tune shaker. W Lover
http://thewlovers.com",1554,858,"fleurjack","Washington, USA","Washington",47.273022,-120.882482,48.66580725,-121.2671757
"155","RT @: The list of people Hillary looks down upon commoners with contempt. #BasementDwellers","7.82359e+17","en","Sat Oct 01 23:20:08 +0000 2016",5,"Tampa, fl","83302079","Trying to connect with the world!!!!!!!",97,405,"misstang84","Florida, USA","Florida",27.698682,-83.804475,27.94303064,-82.33993055
"156","Wow...just wow,... https://t.co/qQjY3xsWBS","7.82359e+17","en","Sat Oct 01 23:20:09 +0000 2016",22,"Kingsport, TN","348083356","The question isn't who is going to let me; it's who is going to stop me.-Ayn Rand",965,1976,"talinaann","Herrin, IL","Herrin",37.8104655,-89.0337225,37.80509117,-89.02888157
"157","@ I am always proud of you","7.82359e+17","en","Sat Oct 01 23:20:10 +0000 2016",2,"Eugene, OR","432858174","Shake n' Bake . | UO | <U+03A7>O | http://oregonchio.tumblr.com/",520,338,"Tbabbbby","Eugene, OR","Eugene",44.065621,-123.1224015,44.043652,-123.0800551
"158","RT @: What needs to happen next in this story is that they worked for Trump, or once sang with David Bowie or something. 
https://t.","7.82359e+17","en","Sat Oct 01 23:20:10 +0000 2016",838,"United States","2841269945","This is our #jobs feed. Follow @VACareers to connect.",752,1,"JobsatVA","Northampton, MA","Northampton",42.3321275,-72.672722,42.3514776,-72.6995358
"159","#hurtandhustle interviewing #canseco, really? You call this TV!","7.82359e+17","en","Sat Oct 01 23:20:10 +0000 2016",90,"Washington","59694889","Follow this account for geo-targeted Retail job tweets in Washington Non-Metro. Need help? Tweet us at @CareerArc!",398,313,"tmj_wa_retail","Lynnwood, WA","Lynnwood",47.827984,-122.3001295,47.827228,-122.2688064
"160","@ Awesome game ","7.82359e+17","en","Sat Oct 01 23:20:10 +0000 2016",160,"Seattle, WA","21677556","Follow this account for geo-targeted Healthcare job tweets in Seattle, WA. Need help? Tweet us at @CareerArc!",705,306,"tmj_sea_health","Everett, WA","Everett",47.9599495,-122.2317885,47.9417388,-122.2334664
"161","1 time someone said ""bye feicia"" at rehearsal so we started talking bout friday. the one (yt) girl in the room went ""wait, thats person???""","7.82359e+17","en","Sat Oct 01 23:20:10 +0000 2016",140,"Portland, OR","21730093","Follow this account for geo-targeted Sales job tweets in Portland, OR. Need help? Tweet us at @CareerArc!",470,309,"tmj_pdx_sales","Vancouver, WA","Vancouver",45.630589,-122.5889745,45.6387281,-122.6614861
"162","RT @: Eric Trump's charity spent $880K at family-owned golf resorts: https://t.co/scsw5cC9Qc https://t.co/hMIGuVZKKM","7.82359e+17","en","Sat Oct 01 23:20:11 +0000 2016",7,"NYC/Bloomington","111750167","contributing writer @si_swimsuit. national/state politics reporter @idsnews. extrovert, optimist, feminist, and thinker.",679,615,"melanie_metzman","Indiana, USA","Indiana",39.7665555,-86.441236,39.16633,-86.52802
"163","RT @: TRUMP: Hillary won't stand up to America's enemies. I will.

*Gets into fights with Miss Universe, Gold Star family, and a baby*","7.82359e+17","en","Sat Oct 01 23:20:11 +0000 2016",1,"anywhere","309972528","Farmer, constuction, lineman, skier. What do you need done.",44,36,"NateBartlow","Rushville, IL","Rushville",40.121694,-90.5633155,40.11743078,-90.5754743
"164","Really missing @ right about now. Hope to see you again soon!","7.82359e+17","en","Sat Oct 01 23:20:12 +0000 2016",146,"Treaty 1 Territory (Wpg)","16301087","Proud Anishinaabekwe. Consultant, Dir of Marketing @AboriginalCAN, Grad Student at @RoyalRoads & @UofMbNativeStud. Take care of each other, it's scary out there",2379,968,"Denezy","Winnipeg, Manitoba","Winnipeg",49.8538055,-97.1526765,49.88802628,-97.13676116
"165","RT @: Original press conference #TRUMP with #AliciaMachado! #MissPiggy &amp; #MissHousekeeping was never used. #Hillary lied! http","7.82359e+17","en","Sat Oct 01 23:20:13 +0000 2016",22,NA,"47209162","Believer in Him. Mom. Adoption & Sponsorship. Voice for the Orphan. Family Girl. Buckeye. Life Lover.",788,2111,"istandbeforeyou","Missouri, USA","Missouri",38.3045585,-92.4367735,38.76898478,-94.12245023
"166","RT @: Bernie Sanders' supporters, don't stay in the basement on Nov 8th.

Get out &amp;  #VoteTrump

#ImWithHer NOT!!! ","7.82359e+17","en","Sat Oct 01 23:20:13 +0000 2016",743,"Brookfield, WI","1656755029","Explore the possibilities. Across the globe, Fiserv changes the way people view financial services.",478,1,"FiservCareers","Lake Mary, FL","Lake Mary",28.7574865,-81.3322935,28.7588833,-81.3178446
"167","At Daily Kos: Hillary Clinton trolls Trump with late-night tweets of her own https://t.co/BHpw3XNXwt","7.82359e+17","en","Sat Oct 01 23:20:14 +0000 2016",10,"Nevada City, California","467866396","Nevada County Weather. Home of the only 24/7 Live weather station with twitter updates. Plan your day. Follow my weather discussion: http://t.co/mdsOJfCe3d",224,59,"NevadaCountyWX","Grass Valley, CA","Grass Valley",39.215572,-121.058188,39.24222222,-121.0544444
"168","I'm in jail . https://t.co/7S07qX6yqg","7.82359e+17","en","Sat Oct 01 23:20:14 +0000 2016",12,"COLUMBUS Detroit Atlanta Miami","140088138","just here to talk my shit, if you're expecting more you're playin yourself - Monotone Conversationalist - somehow a Sacramento Kings Fan #MxN305",379,284,"puj_sixfourteen","Columbus, OH","Columbus",39.9946835,-82.985772,39.9696799,-83.0019
"169","RT @: THE DNC, HILLARY, FBI &amp; DOJ...

AS ALL GET EXPOSED BY WIKILEAKS NEXT RELEASE!

(cuter version) https://t.co/2luo42gIZk","7.82359e+17","en","Sat Oct 01 23:20:14 +0000 2016",59,"Vancouver B.C. Canada","79868193","Wedding cakes, custom cakes, cupcakes, cookies. Using only the highest quality ingredients, with vegan + gluten free options! 3458 E Hastings St. Vancouver",993,969,"Le_Gateau","Vancouver, British Columbia","Vancouver",49.257639,-123.123581,49.27301037,-123.1364822
"170","RT @: GOP Blocks Probes Into Trump-Russia Ties https://t.co/5KwG38LPAN via @ What are Republicans trying to hide?","7.82359e+17","en","Sat Oct 01 23:20:14 +0000 2016",13,"Fresno, CA","28488384","She's a fighter when she's mad and she's a lover when she's lovin ...",363,633,"Dani_Sheree_","Fresno, CA","Fresno",36.786042,-119.7824645,36.84974119,-119.8944377
"171","I just got told I need to get thicker because I'm a small girl.  ahuh ok","7.8236e+17","en","Sat Oct 01 23:20:15 +0000 2016",958,"Nipomo, California","18523795","Lives on California Central Coast w/ @daddledo & their 6 kids! #Blogger & Brand Ambassador - Travel, Food, Beauty, Technology & Family! themommyfiles@gmail.com",26330,23125,"themommyfiles","Morro Bay, CA","Morro Bay",35.3780725,-120.846039,35.36695058,-120.8530068
"172","@ Sorry.","7.8236e+17","en","Sat Oct 01 23:20:16 +0000 2016",27,"Cleveland, Ohio - USA","9114602","Drew is a web/graphic designer, drummer, singer, actor, writer, game player, Beatles fan, tech enthusiast, and a life-long and proud Clevelander.",260,151,"arothman","Cleveland, OH","Cleveland",41.4959395,-81.705467,41.50169,-81.68156
"173","The last six days proved Donald Trump is dangerously unfit for the presidency - Vox https://t.co/Dxb3HZAtJY","7.8236e+17","en","Sat Oct 01 23:20:17 +0000 2016",4,"st petersburg, fl","1939839355","Digital Events Coordinator for  #JohnsonWeld2016",200,244,"jess4liberty","Philadelphia, PA","Philadelphia",40.0048655,-75.117998,40.0068,-75.1429
"174","Hillary Mocks Bernie Supporters 'Living In Parents Basement'... https://t.co/bXJkpqle1T by #EBischoff via @","7.8236e+17","en","Sat Oct 01 23:20:17 +0000 2016",98,"Claremore, OK","17576413","Where your #equine experience begins! Follow and learn about happenings at the #ranch. Engineer, #horse owner, small business owner. @dkstowers",2900,1953,"SierraRanch","Claremore, OK","Claremore",36.3042505,-95.6020665,36.3152,-95.6128
"175","@ love you and Louisiana","7.8236e+17","en","Sat Oct 01 23:20:17 +0000 2016",163,"Harlem & NW Hwy, Chicago 60631","1077479088","Offers premier real estate services in the Chicago and Chicagoland suburban areas. #1 CENTURY 21 Office in Illinois! Seriously- we can help you :)",356,436,"C21McMullen","Chicago, IL","Chicago",41.8335845,-87.732013,41.9215179,-87.7822667
"176","RT @: Trump's vision actually involves America. Hillary's plan is to destroy this country with open borders. ","7.8236e+17","en","Sat Oct 01 23:20:18 +0000 2016",90,"Guerneville, CA","14905592","proud mother, excellent friend & vegan enthusiast.",898,1452,"neverfeltbetter","Guerneville, CA","Guerneville",38.505472,-122.993208,38.50343712,-123.000021
"177","RT @: Trump backer: Finally. Someone who thinks like me https://t.co/EetCDz12wt https://t.co/3U8g3GWUXF","7.8236e+17","en","Sat Oct 01 23:20:19 +0000 2016",0,"Miami, Florida ","3003605314","LIVE every moment,  LAUGH everyday, LOVE forever.",44,201,"tiffanylw02_t","Hialeah, FL","Hialeah",25.857732,-80.3046625,25.898674,-80.3153229
"178","RT @: The music store owner who rented Bruce Springsteen his first guitar claims Donald Trump stiffed him out of $30,000 https:/","7.8236e+17","en","Sat Oct 01 23:20:19 +0000 2016",79,"Boise, Idaho","2453855358","#Dad #Promoter #Motivator                           Find Me on #LinkedIn #Facebook #Instagram",12880,9752,"MrKC_","Boise, ID","Boise",43.598033,-116.238001,43.64184899,-116.1850064
"179","RT @: @ I supported Bernie and you called me and all my college friends ""basement dwellers"", I'm voting for #Trum","7.8236e+17","en","Sat Oct 01 23:20:19 +0000 2016",37,"New York City","367440095","Angel Zayas Photography:
(PRESS CREDENTIALED) Photojournalist 
Featured in NYDN, The Guardian, Time, NYT, NYPost, WSJ.
(NYPPA/NPPA) 

Email:angelzayas@azp.nyc",850,3206,"AZPNYC","Brooklyn, NY","Brooklyn",40.655138,-73.9487755,40.65,-73.95
"180","@ @ any idea what stores are getting it? All GNCs that carry Legend and Amino?","7.8236e+17","en","Sat Oct 01 23:20:19 +0000 2016",33,"YEWSTIN, TX","337272498","Candy is dandy but liquor is quicker. I dig the sports & the game theory. Lover of footy & poker. Unoffendable, unapologetic, giver of zero point zero fucks.",782,765,"JenBad47","Chicago, IL","Chicago",41.8335845,-87.732013,41.9329,-87.6463
"181","@ looks like your having a great #BacheloretteParty!","7.8236e+17","en","Sat Oct 01 23:20:19 +0000 2016",48,"New York Fuckin' City","20547706","Strong. Beautiful. Talented. Slightly insane. Amazing artist...go 'Like' me on FB! http://www.facebook.com/pages/Nico-Kwan-Art/71225990114",1425,1361,"nicokwanart","Manhattan, NY","Manhattan",40.780709,-73.9685415,40.77966383,-73.97505504
"182","@ girl there is not a better way","7.8236e+17","en","Sat Oct 01 23:20:20 +0000 2016",5,"Chadron, NE","618378317",NA,537,147,"mckailie","Denver, CO","Denver",39.713563,-104.9220935,39.7392,-104.984
"183","Finally off work :,)","7.8236e+17","en","Sat Oct 01 23:20:20 +0000 2016",50,"Dallas, TX","326027612",NA,1933,47,"HoneyysLove","Plano, TX","Plano",33.0612425,-96.7349005,33.074794,-96.712487
"184","RT @: Marie Claire Mexico to Ivanka Trump: 'Protect Us From Your Father' https://t.co/NdUwAVq623","7.8236e+17","en","Sat Oct 01 23:20:20 +0000 2016",15,"Rochester, NY","1545382938","Beachbody coach. <ed><U+00A0><U+00BD><ed><U+00B2><U+00AA><ed><U+00A0><U+00BC><ed><U+00BF><U+00BB> Craft beer lover. <ed><U+00A0><U+00BC><ed><U+00BD><U+00BA>Furbaby mama. <ed><U+00A0><U+00BD><ed><U+00B0><U+00B1> Proud aunt. <ed><U+00A0><U+00BD><ed><U+00B1><U+00A6><ed><U+00A0><U+00BC><ed><U+00BF><U+00BC> Creating a life of balance; mind, body, and soul. <U+270C><ed><U+00A0><U+00BC><ed><U+00BF><U+00BB><U+FE0F><U+2728><U+2764><U+FE0F>  snap: dmplbaby",154,774,"dmplbaby","New York, USA","New York",42.746617,-75.770041,43.156315,-77.569275
"185","At least we have the cutest cat in town @ https://t.co/XQvs312W1Q","7.8236e+17","en","Sat Oct 01 23:20:20 +0000 2016",7,"Arizona, USA","400523570","Snapchat & instagram~ Yelgari~ fashion is everywhere, own it - fashion/travel blogger",120,384,"Yeraldin_Lerma","Paradise, NV","Paradise",36.0609645,-115.135165,36.11621281,-115.1743229
"186","Id love to read an essay about this. https://t.co/KQRA6dZWLc","7.8236e+17","en","Sat Oct 01 23:20:20 +0000 2016",52,NA,"946263481","Dempsey Uniform & Linen Supply is a top rated company for uniform supply, linen service & healthcare laundry headquartered in PA and servicing the Mid-Atlantic.",285,421,"DempseyCareers","Jessup, PA","Jessup",41.4735775,-75.5629255,41.4616058,-75.5747109
"187","RT @: This was a conversation I just had w/ a Trump supporter, who said he is a registered Democrat in Manheim, PA: https://t.co/ik","7.8236e+17","en","Sat Oct 01 23:20:20 +0000 2016",46,"Spokane, WA","28853077","Follow this account for geo-targeted Healthcare-Nursing job tweets in Spokane, WA. Need help? Tweet us at @CareerArc!",346,284,"tmj_wak_nursing","Spokane, WA","Spokane",47.667438,-117.434547,47.6939041,-117.3932074
"188","RT @: ""This is our unthinkable."" -- WSJ edit bd member Dorothy Rabinowitz to Lawrence O'Donnell, comparing the Donald's cand","7.8236e+17","en","Sat Oct 01 23:20:20 +0000 2016",141,"Los Angeles, CA","22454941","Follow this account for geo-targeted Hospitality/Restaurant/Tourism job tweets in Los Angeles, CA. Need help? Tweet us at @CareerArc!",467,288,"tmj_lax_hrta","Thousand Oaks, CA","Thousand Oaks",34.188478,-118.9188865,34.1705609,-118.8375937
"189","First Clinton-Trump matchup breaks presidential debate record with 84 mi.. Related Articles: https://t.co/7P91HEOFAU","7.8236e+17","en","Sat Oct 01 23:20:20 +0000 2016",15,"Little Rock, AR","54287879",NA,252,192,"rohlman","Morrilton, AR","Morrilton",35.1589915,-92.746611,35.15312818,-92.740453
"190","If the people around you are not #Motivating you, why in the hell are they around you?","7.8236e+17","en","Sat Oct 01 23:20:20 +0000 2016",546,"San Francisco, CA","22058139","Follow this account for geo-targeted Marketing/Ad/PR job tweets in San Francisco, CA. Need help? Tweet us at @CareerArc!",1383,223,"tmj_sfo_adv","San Francisco, CA","San Francisco",37.7706565,-122.4359785,37.7870156,-122.4071835
"191","RT @: I am voting for Donald J. Trump and nothing will change my mind.
Hillary offers nothing but the same BS we already ","7.8236e+17","en","Sat Oct 01 23:20:20 +0000 2016",112,"San Francisco, CA","37935139","Follow this account for geo-targeted Other job tweets in San Francisco, CA. Need help? Tweet us at @CareerArc!",684,569,"tmj_sfo_jobs","Pleasant Hill, CA","Pleasant Hill",37.9538165,-122.0770345,37.9479786,-122.0607963
"192","@ @ I think so.","7.8236e+17","en","Sat Oct 01 23:20:21 +0000 2016",215,"Los Angeles, CA","21298660","Follow this account for geo-targeted Healthcare job tweets in Los Angeles, CA. Need help? Tweet us at @CareerArc!",963,306,"tmj_lax_health","Torrance, CA","Torrance",33.8337145,-118.3512175,33.83,-118.33
"193","@ @ @ People NEED to fight with Their VOTES and KEEP the Vile Hillary OUT of the Oval Office!!","7.8236e+17","en","Sat Oct 01 23:20:23 +0000 2016",6,"ÜT: 9.5987316,124.0227188","57333486","A free-spirited, positive, happy-go-lucky bloke with a sense of adventure. <U+263A>",146,89,"IamAlwaysRhon","San Francisco, CA","San Francisco",37.7706565,-122.4359785,37.78428747,-122.4063355
"194","Hotel party","7.8236e+17","en","Sat Oct 01 23:20:23 +0000 2016",22,"Victoria B.C. Canada","2775803293","I drink beer, lots of it....Mostly craftbrew. If you like beer we can be friends, that is all.",665,893,"craftbrewjester","Victoria, British Columbia","Victoria",48.4267305,-123.3583795,48.4287,-123.366
"195","@ your profile pic !! i love ur eyes ugh ","7.8236e+17","en","Sat Oct 01 23:20:23 +0000 2016",2,"Chicago","3052576311","western kentucky university || AG<U+0394>",619,368,"broookenovak","Bowling Green, KY","Bowling Green",36.965671,-86.4355085,36.98548995,-86.4562313
"196","Ppl mad at Hilary over #BasementDwellers are showing their lack of reading comprehension, but Trump does love the uneducated","7.8236e+17","en","Sat Oct 01 23:20:23 +0000 2016",68,"Omaha, NE","9062392","Disciple. Wife to @robjonfire. Manila Then. Omaha Now. KidMin Captain. NextGen Minister. City Builder. Traveler. Shutterbug. Food & Ice Cream Hunter.",1915,1046,"happysammy","Nebraska, USA","Nebraska",41.5007295,-99.6809025,41.12930043,-96.19921479
"197","I need madden 17","7.8236e+17","en","Sat Oct 01 23:20:24 +0000 2016",11,"PNW","304271963","I like food, various art forms & being happy. Instagram@luminouszest",89,84,"mayleeroseberry","Seattle, WA","Seattle",47.614817,-122.3306025,47.6064,-122.331
"198","RT @: Trump should just retire, buy the Playboy mansion, live out his misogynistic fantasies and leave the rest of us alo ","7.8236e+17","en","Sat Oct 01 23:20:25 +0000 2016",0,"tacoma, wa, usa","70197451","likes sports. loves animals. <U+26BE><U+FE0F>",181,172,"__carson","Port Townsend, WA","Port Townsend",48.1211345,-122.7823765,48.136684,-122.7618569
"199"," dude bought a brick, opened it up and the bitch was cracked in half https://t.co/pLMvie7qF6","7.8236e+17","en","Sat Oct 01 23:20:25 +0000 2016",30,"Brooklyn, NY","297100010","Feed of glamglare indie music blog, run by @elkenyc & @oliverbo. Check out new music, concert photos, artist interviews & enjoy life through music - every day!",385,179,"glamglare","Manhattan, NY","Manhattan",40.780709,-73.9685415,40.71795067,-73.98548452
"200","RT @: . ""If Trump is losing they better start building bigger stadiums for when he starts winning""  -Gov. Mike Pence ","7.8236e+17","en","Sat Oct 01 23:20:26 +0000 2016",14,"Tillsonburg, Ontario","18265385","@FanshaweWdsk Comms & Teacher, @JrCPSSailors Asst GM, @Conestoga M&W Hcky Coach, Voice of @LondonMajors, @TD_Canada RESL, thoughts on this account are mine only",557,1121,"ericccollins","Boston, MA","Boston",42.3136695,-71.0887125,42.34644218,-71.0971914
"201","Hillary Clinton trolls Trump with late-night tweets of her own https://t.co/z8yJSHqglq #p2","7.8236e+17","en","Sat Oct 01 23:20:27 +0000 2016",65,"ÜT: 43.65394,-79.418784","13170172","A-partisan lefty with big hair and my own opinions. Don't call me Mary.",1422,943,"marymargaret","Toronto, Ontario","Toronto",43.629311,-79.2725695,43.651673,-79.3833312
"202","RT @: She locked up the vote by rigging the primary. Now she's insulted Bernie's supporters as being naive ","7.8236e+17","en","Sat Oct 01 23:20:28 +0000 2016",16,"Detroit, MI","542701218","The Weirdo with a Beardo. Oh, and I make weekly YouTube videos

Comedy: https://t.co/MUcw6TEhDJ
Vlogs: https://t.co/KmZXDWphrG
Snapchat &  Instagram: @TALOOKA",226,213,"TalookaBadooka","Dearborn, MI","Dearborn",42.314732,-83.213557,42.314735,-83.226268
"203","@ I'm gonna rub you on the paper, to erase my inky sins","7.8236e+17","en","Sat Oct 01 23:20:28 +0000 2016",44,"Los Angeles","22152919","Artist. Writer. Ginger.",1459,912,"stuartsandford","Los Angeles, CA","Los Angeles",34.0207895,-118.4119065,34.02820565,-118.3548985
"204","That moment when you find 36 eastern newts on the walk to the cliff spot https://t.co/EZWZ9GNKnP","7.8236e+17","en","Sat Oct 01 23:20:29 +0000 2016",14,"phoenix,az","237313171","http://brasNballz.com <U+2764> lover of all teamz <U+2764> 
frmr razorback fanatic Snapchat @brasNballz",738,520,"brasnballz","Phoenix, AZ","Phoenix",33.5528625,-112.1246765,33.50815522,-112.0357943
"205","Let's make a vanity, day 2 https://t.co/NsQvuVBC51","7.8236e+17","en","Sat Oct 01 23:20:29 +0000 2016",9,"Phoenix","243341964","baker  traveler gardener  daughter  friend",157,514,"susancas16","Arizona, USA","Arizona",34.1682535,-111.931711,33.68348252,-112.2882766
"206","@ @ @ That sucks!","7.8236e+17","en","Sat Oct 01 23:20:29 +0000 2016",31,"LAX","127159880","I Hate Sneakers.",1574,371,"Sk8TheGr8","Gardena, CA","Gardena",33.891035,-118.308566,33.89361111,-118.3077778
"207","@ he's back  #AllHailFelix https://t.co/rQaXzsrCiX","7.8236e+17","en","Sat Oct 01 23:20:31 +0000 2016",79,"Salt Lake City, UT","22487463","Follow this account for geo-targeted Hospitality/Restaurant/Tourism job tweets in Salt Lake City, UT. Need help? Tweet us at @CareerArc!",338,284,"tmj_slc_hrta","Orem, UT","Orem",40.2951135,-111.6964685,40.3124809,-111.706047
"208","RT @: Super important provocative ad... we live still in a nuclear world and need to worry about craziness in any party... https:","7.8236e+17","en","Sat Oct 01 23:20:31 +0000 2016",98,"Seattle, WA","22487316","Follow this account for geo-targeted Hospitality/Restaurant/Tourism job tweets in Seattle, WA. Need help? Tweet us at @CareerArc!",539,315,"tmj_sea_hrta","Redmond, WA","Redmond",47.6788125,-122.061771,47.668795,-122.1198472
"209","RT @: I keep seeing people say that @ deserves a Pulitzer. I'd just like to buy him a beer. https://t.co/HJfCpfDiv9","7.8236e+17","en","Sat Oct 01 23:20:31 +0000 2016",134,"New Haven, CT","1357649856","Yale-New Haven Hospital is a 1,500+ bed medical center, one of the largest hospitals in the US, and the primary teaching hospital for Yale School of Medicine.",259,66,"YNHHJobs","Derby, CT","Derby",41.327139,-73.0814705,41.3206523,-73.0889973
"210","RT @: If you love America #Trump is the only choice 

#RegisterToVote
#Hillary #ImWithHer ...not!!
#MAGA #AmericaFirst ","7.8236e+17","en","Sat Oct 01 23:20:31 +0000 2016",75,NA,"1280736290","Black Hills Corporation is a diversified energy company with a tradition of exemplary service and a vision to be the energy partner of choice.",88,0,"BlackHillsJobs","Colorado, USA","Colorado",38.997936,-105.5508905,38.7099896,-105.1399807
"211","You bite the peach and the peach bites back","7.8236e+17","en","Sat Oct 01 23:20:31 +0000 2016",466,"Moorestown, NJ","889599440","BAYADA employs more than 18,000 nurses, home health aides, therapists, medical social workers, managers, and other health care professionals across the country.",413,29,"JoinBAYADA","Sharon, PA","Sharon",41.2350315,-80.497282,41.2331116,-80.4934035
"212","happy birthday you beautiful soul @ ","7.8236e+17","en","Sat Oct 01 23:20:32 +0000 2016",18,"San Francisco Bay Area, CA","20861439",NA,249,841,"eevangelista","San Francisco, CA","San Francisco",37.7706565,-122.4359785,37.775,-122.418
"213","That's what you think https://t.co/yzIZB5vBpw","7.8236e+17","en","Sat Oct 01 23:20:32 +0000 2016",36,"Wonderland","41636554","A Cheshire cat of infamy; I like chatting, so drop my Telegram a line--it's the same as my Twitter.

@JayFearington is the Master to my Doctor.",1259,851,"Lunostophiles","Old Orchard Beach, ME","Old Orchard Beach",43.5232425,-70.3892995,43.52076197,-70.37101644
"214","RT @: As if the cemetery vote wasn't enough to STEAL election now they give voting rights to felons https://t.co/PMWCyavqVr","7.8236e+17","en","Sat Oct 01 23:20:32 +0000 2016",10,"Richland, WA","317150481","I spend my time with my husband traveling around in our RV with our dog Jo (Lab). Searching for beautiful weather & waterfalls! I am loving retirement!",132,159,"TeresaOwen1","Port Hadlock-Irondale, WA","Port Hadlock-Irondale",48.044768,-122.7679125,48.0221863,-122.7844328
"215","@ ditto brother- @ and his team created a great product glad I was able to spread the love","7.8236e+17","en","Sat Oct 01 23:20:32 +0000 2016",111,NA,"4586339233","When you join IASIS, you become part of a team that is committed to caring. Our goal is to approach every situation and every patient with a caring heart.",166,218,"IASISCareers","Texarkana, TX","Texarkana",33.430735,-94.0972555,33.4279329,-94.0468519
"216","RT @: UPDATE: The child rape case against Trump intensifies after inclusion of additional new witness &amp; attorney. ","7.8236e+17","en","Sat Oct 01 23:20:33 +0000 2016",5,"Roseville, MI","215117982","Weather updates, forecast, warnings and information for Roseville, MI. Sources: http://OpenWeatherMap.org, NOAA, USGS.",43,2,"RosevilleMI","Roseville, MI","Roseville",42.509768,-82.9359155,42.5,-82.94
"217","I only push you away to see how far you will go","7.8236e+17","en","Sat Oct 01 23:20:33 +0000 2016",0,NA,"290210640","• Health Sciences Major <ed><U+00A0><U+00BD><ed><U+00B2><U+0089><ed><U+00A0><U+00BD><ed><U+00B2><U+008A> • UK Basketball <U+26AA><U+FE0F><ed><U+00A0><U+00BD><ed><U+00B4><U+00B5> • Proverbs 31:25 •",642,1168,"_kgeek22","Kokomo, IN","Kokomo",40.472726,-86.142212,40.43740507,-86.12647738
"218","people will love you and support you when it's beneficial","7.8236e+17","en","Sat Oct 01 23:20:33 +0000 2016",5,NA,"21354932","@blkswannbeats @flfinestfamily",1008,115,"brinsonswann","DeLand, FL","DeLand",29.017061,-81.2916595,29.02906918,-81.32034061
"219","RT @: Unflattering Hillary picture incoming! #BasementDwellers https://t.co/GUmnBSiiXY","7.8236e+17","en","Sat Oct 01 23:20:33 +0000 2016",3,"United States of America","406561272","Musician, Singer, Songwriter, Fitness, Motivation, Bodybuilding - - South African living in New York",27,23,"GeorgeGolla","Nantucket, MA","Nantucket",41.270788,-70.087199,41.28449891,-70.09616879
"220","""Be ocean minded"" ","7.8236e+17","en","Sat Oct 01 23:20:34 +0000 2016",25,"NYC","50225063","Prooducer, songwriter, session musician. Peripatetic New Yorker, “musical Swiss-Army knife”, avowed language junkie. 
@FunkyButter",1099,500,"JusBass","Manhattan, NY","Manhattan",40.780709,-73.9685415,40.74305391,-74.00571004
"221","RT @: WATCH: ""If you can't run your own house, you certainly can't run the White House!"" -Michelle Obama on Hillary in '08 https","7.8236e+17","en","Sat Oct 01 23:20:34 +0000 2016",5,NA,"564146679","Bridging distance between Science + Strategy",172,84,"HaiLife360","Illinois, USA","Illinois",39.7393005,-89.2665075,42.3242631,-88.9440964
"222","RT @: 100% sure that Donald Trump was referring to his debate performance when he used the words ""bad product"". https://t.co/UiWH1X","7.8236e+17","en","Sat Oct 01 23:20:34 +0000 2016",533,NA,"78995297","Looking for a career, and not just another job? Consider Cintas, where the spirit is the difference. Follow us for our latest career opportunities.",372,3,"CintasCareers","Midland, MI","Midland",43.6358535,-84.237267,43.6155825,-84.2472116
"223","RT @: When this is over, Trump needs to produce birth certificates of his remaining followers to prove they're real #Unfollow","7.8236e+17","en","Sat Oct 01 23:20:35 +0000 2016",0,"Philadelphia","300885628",NA,9,35,"Oct-33","Philadelphia, PA","Philadelphia",40.0048655,-75.117998,39.94852,-75.16194
"224","Some dead cp vibes tonite...","7.8236e+17","en","Sat Oct 01 23:20:35 +0000 2016",72,"St Louis","84622776","Android at Amex. GDG St Louis co-organizer. My posts and opinions are my own, not those of my employer.",545,378,"benlikestocode","Manhattan, NY","Manhattan",40.780709,-73.9685415,40.76819978,-73.98221954
"225","RT @: Newt Gingrich to Donald Trump: ""No excuse"" for tweetstorm in the wee hours https://t.co/1B52w6LQxF","7.8236e+17","en","Sat Oct 01 23:20:35 +0000 2016",3,"NY - The City of Adventures","389850551","Movie Lover, Comic Con Goer, Epic Dog lover. Who wants to pay me to travel the world???",75,509,"KatieDlo","Manhattan, NY","Manhattan",40.780709,-73.9685415,40.73806011,-73.9879878
"226","Almost forgot https://t.co/m3KUAolz14","7.8236e+17","en","Sat Oct 01 23:20:36 +0000 2016",59,"Cybersauce","14874373","Proprietary drivers are being piloted by tiny mice in swivel-chairs.",1311,1546,"x11r5","Nevada, USA","Nevada",38.502147,-117.0226945,40.172259,-119.946964
"227","RT @: Trump Relaxes After Debate By Slipping Back Into Nice, Warm Personal Reality https://t.co/gVQD2FATov https://t.co/yN3c9mCC2O","7.8236e+17","en","Sat Oct 01 23:20:37 +0000 2016",348,"New York","21238828","I'm going to get the pizza.",12880,6551,"ArthurBovino","Bronx, NY","Bronx",40.8503475,-73.8494415,40.82954,-73.92645
"228","Hillary Clinton trolls Trump with late-night tweets of her own https://t.co/rVIEntXllX #p2","7.8236e+17","en","Sat Oct 01 23:20:37 +0000 2016",273,"Richmond, Surrey, UK","497145453","Live stream of music playing at @VirtualJukebox locations. We make background music more engaging.",1742,1,"VJB_LiveFeed","Port Huron, MI","Port Huron",42.987736,-82.466475,42.975489,-82.422367
"229","5-0!!!! SWEET VICTORY! #feelslike98","7.8236e+17","en","Sat Oct 01 23:20:37 +0000 2016",42,"Sarasota, FL","21869077","Senior Producer of daytime talk show, Suncoast View. On-air host. Dad to chihuahua.",1997,2128,"howboutjoey","Sarasota, FL","Sarasota",27.3411215,-82.5330735,27.33242852,-82.54409686
"230","RT @: For someone who is fat, short-fingered and strange-looking, Trump is obsessed with looks. https://t.co/QMVQrDkj1M https://t","7.8236e+17","en","Sat Oct 01 23:20:37 +0000 2016",12,"Oklahoma City, OK","25718534","Target District Team Leader in OKC",387,292,"Lawwible","Euless, TX","Euless",32.8462365,-97.0945065,32.87361,-97.10321
"231","RT @: Irony: Trump illegally trades in Cuba; 1 in 3 Trump supporters want an ATLANTIC WALL to keep out Muslims. Vol.11: https","7.8236e+17","en","Sat Oct 01 23:20:37 +0000 2016",64,"Dallas/Austin TX","35250319","University of Texas '16 l YouTuber | Snapchat & Instagram - JeanineAmapola",47034,890,"JeanineAmapola","Manhattan, NY","Manhattan",40.780709,-73.9685415,40.7142,-74.0064
"232","@ I miss you so much squid","7.8236e+17","en","Sat Oct 01 23:20:37 +0000 2016",18,"Lake Oswego, OR","423330086","Fine Artist & Digital Photographer Original paintings for sale at http://annaporterartist.com. Order fine art prints at http://annaporter.fineartamerica.com.",66,23,"annaporterart","Portland, OR","Portland",45.536402,-122.630908,45.52328083,-122.6762322
"233","Davis about to roast everybody, nobody safe  https://t.co/38gSOKMGgP","7.8236e+17","en","Sat Oct 01 23:20:39 +0000 2016",0,"Blacksburg, VA","764409726",NA,513,450,"bmoses_12","Blacksburg, VA","Blacksburg",37.229291,-80.428864,37.22877089,-80.42066665
"234","RT @: Don't forget the time Hillary had a MINUTE LONG rally in LA due to being heckled. Nobody likes her!  #NeverHillary ","7.8236e+17","en","Sat Oct 01 23:20:40 +0000 2016",5,"Houston, Tejas ","40763745","Smile like you mean it",366,344,"alyssaf7","League City, TX","League City",29.497157,-95.087029,29.50300391,-95.09457993
"235","Here's a dramatic selfie for your Saturday  https://t.co/6rFhK7IxlL","7.8236e+17","en","Sat Oct 01 23:20:40 +0000 2016",4,"Studio City, California","788498844","TV Director/Producer/Lover, Blonde in Mind and Hair, Progressively Happy http://katygarretson.com",226,454,"KatyGarretson","Los Angeles, CA","Los Angeles",34.0207895,-118.4119065,34.01453521,-118.2880434
"236","I am a great believer in lavender fortune as I turned around to see Lucy Kress at my solstice step latitude.","7.8236e+17","en","Sat Oct 01 23:20:40 +0000 2016",8,NA,"351951804","Im blessed I have been thru the struggle over came many obstacles.....follow me on instagram @theyadore_shay follow my snapchat deyloveshay",531,369,"_DeyLoveShay","Atlanta, GA","Atlanta",33.7671945,-84.433106,33.77652904,-84.47408712
"237","@ Great idea! Let's vote Stein and - elect Trump! Yay! I always wanted a fascist moron for President.","7.8236e+17","en","Sat Oct 01 23:20:41 +0000 2016",20,"Brooklyn, NY","3111489303","Future JD Student and [ Event Coordinator]",506,506,"thetrue_empress","Brooklyn, NY","Brooklyn",40.655138,-73.9487755,40.63919,-73.96181
"238","RT @: Les Deplorables:
Obama never made a bigger mistake than when he put Hillary Clinton in charge of this nation's secu ","7.8236e+17","en","Sat Oct 01 23:20:41 +0000 2016",3,"209 | 310","124970477","Ucla Softball & Wolfdog mommy | Hapa",442,142,"_gabriellelee_","Pasadena, CA","Pasadena",34.17731,-118.131964,34.16060844,-118.1674043
"239","RT @: If Trump gets 15,000 to Hillary's 800 in the same town, that matters. And everyone knows it. Nobody likes sick Hillary.","7.8236e+17","en","Sat Oct 01 23:20:41 +0000 2016",86,"Sacramento, CA","22637633","Follow this account for geo-targeted Hospitality/Restaurant/Tourism job tweets in Sacramento, CA. Need help? Tweet us at @CareerArc!",375,285,"tmj_sac_hrta","Lodi, CA","Lodi",38.119674,-121.278605,38.1160519,-121.3071608
"240","So sweet I love you both  https://t.co/vBGtTPXfW5","7.8236e+17","en","Sat Oct 01 23:20:43 +0000 2016",88,"San Diego, CA","22158071","Follow this account for geo-targeted Healthcare-Nursing job tweets in San Diego, CA. Need help? Tweet us at @CareerArc!",1083,1118,"tmj_san_nursing","San Diego, CA","San Diego",32.810012,-117.104989,32.8102534,-117.1323579
"241","@ @ @ @ @ OMFG","7.8236e+17","en","Sat Oct 01 23:20:43 +0000 2016",62,"Los Angeles, CA","28847631","Follow this account for geo-targeted Insurance job tweets in Los Angeles, CA. Need help? Tweet us at @CareerArc!",262,118,"tmj_lax_ins","Torrance, CA","Torrance",33.8337145,-118.3512175,33.83,-118.33
"242","@ Well baby doll what you have not gotten what you have been desiring all night?Nevertheless I would be jealous and angry","7.8236e+17","en","Sat Oct 01 23:20:43 +0000 2016",40,"3000 South Hill Street, L.A","758455320",NA,856,359,"CityofAngelsBox","California, USA","California",37.2691755,-119.3066075,34.02086622,-117.9268796
"243","Hillary Mocks Bernie Supporters 'Living In Parents Basement'... https://t.co/8ZvbZGmYFa by #DonaldJTrumpJr via @","7.8236e+17","en","Sat Oct 01 23:20:43 +0000 2016",208,"California","59784845","Follow this account for geo-targeted Retail job tweets in California Non-Metro. Need help? Tweet us at @CareerArc!",562,315,"tmj_ca_retail","Santa Rosa, CA","Santa Rosa",38.4522175,-122.6761085,38.4404697,-122.717135
"244","@ I've seen too many pictures and videos... I was on that wall for a minute ","7.8236e+17","en","Sat Oct 01 23:20:43 +0000 2016",5,"Trumbull, CT","602266974","Instagram: savagebearfilmz   and b.gill_photos",162,268,"savagebearfilms","Poughkeepsie, NY","Poughkeepsie",41.6932325,-73.9169915,41.7046,-73.9312
"245","@ Trump Dump just met it's enemy. #KILLARY 5000! https://t.co/TCtbGfAL3f TAKE HER DOWN https://t.co/ReoyVXBeVz","7.8236e+17","en","Sat Oct 01 23:20:44 +0000 2016",9,"Allendale, MI","359451921","NAACP: Grand Valley State University's Chapter GV.NAACPMEM@gmail.com",606,551,"GVSU_NAACP","Allendale, MI","Allendale",42.9687165,-85.924871,42.96430544,-85.88862761
"246","@ only raincoats here...","7.8236e+17","en","Sat Oct 01 23:20:45 +0000 2016",14,"Michigan","15208841","IT. Metal music. Tattoos. Beard. Beer. Chasing happiness.",301,1055,"jodokast89","South Lyon, MI","South Lyon",42.462641,-83.651653,42.4546,-83.6506
"247","RT @: Bringing up Bill's affairs should help. https://t.co/O9yJB2L8dY","7.8236e+17","en","Sat Oct 01 23:20:46 +0000 2016",7,"Denton, TX","1430889577","The Official Twitter Page of the University of North Texas Cheerleaders! #FOENTCHWPO #NOMERCY",852,826,"Northtxcheer","Denton, TX","Denton",33.2024955,-97.1147705,33.20361111,-97.15944444
"248","in need of a semi date","7.8236e+17","en","Sat Oct 01 23:20:46 +0000 2016",546,"Nashville, TN","110827861","Let’s Grow Together! At 13,000 stores and counting, we're growing fast and so can you! Joining Dollar General is just the beginning of your best career yet.",1099,731,"DGCareers","Clarkston, GA","Clarkston",33.8106405,-84.2408425,33.8095487,-84.2396434
"249","RT @: How the Clinton-Trump Race Got Close https://t.co/G6tQiPLtMQ MSM invented scandals 4 HRC; ignored DTs @ @ ","7.8236e+17","en","Sat Oct 01 23:20:47 +0000 2016",221,"Seaside, Oregon","16303079","Journalist & social media professional | Owner + editor of multiple sites for the US & global markets; managing editor at http://MomStart.com.",7411,7494,"BeebAshcroft","Portland, OR","Portland",45.536402,-122.630908,45.58231,-122.724047
"250","Go Raptors! https://t.co/9eIcbq4FB6","7.8236e+17","en","Sat Oct 01 23:20:48 +0000 2016",42,"Rumson,NJ","15611893","#Sandy Survivor, Forward Thinking-Tech lover-Providing Real Estate Solutions & Marketing! Always learning; Gloria Benaroch my_weblog/rumson07760realestate.type",1049,1070,"gloribee","New Jersey, USA","New Jersey",40.0730405,-74.7243235,39.9892,-74.3761
"251","the food is great! go revs! #nerevsgame","7.8236e+17","en","Sat Oct 01 23:20:47 +0000 2016",9,"Dallas, TX   (North Oak Cliff)","19547507","I sell appliances for Ed Kellum and Son in Dallas, Texas. We are located off Knox Henderson and Central Expressway (75)",694,1314,"confusdagn","Dallas, TX","Dallas",32.8198585,-96.7617535,32.7849294,-96.79482937
"252","Hillary Clinton trolls Trump with late-night tweets of her own: Hillary Clinton (or her staff)... https://t.co/td6uucZwrx #BotTuringTest","7.8236e+17","en","Sat Oct 01 23:20:48 +0000 2016",96,"Washington, DC","11679492","A freak who enjoys discovering and sharing a simple beauty of life even in a strange place",1310,1170,"ApostrophePong","Detroit, MI","Detroit",42.3527865,-83.099288,42.336,-83.0489
"253",".@ preach on- look in the mirror to disrupt &amp; design your life- what you say, do, &amp; think who am I? https://t.co/8vz5b8LltS","7.8236e+17","en","Sat Oct 01 23:20:50 +0000 2016",4,NA,"1110697832",NA,247,15,"SyleenaAdams","Seattle, WA","Seattle",47.614817,-122.3306025,47.66285843,-122.3742486
"254","@ trust me unless you go to the same college you wont stay stay in touch. it's sad ","7.8236e+17","en","Sat Oct 01 23:20:50 +0000 2016",3,"indiana","728611393","swimmer, dogs, music//",863,672,"KaaatieTurner","Tuscaloosa, AL","Tuscaloosa",33.1966005,-87.5334065,33.20777825,-87.55046937
"255","RT @: Switched From Dem to Trump
My good friend is giving his full support to #TRUMP

#Blacks4Trump
#MAGA  https://t.co/4","7.8236e+17","en","Sat Oct 01 23:20:50 +0000 2016",5,"Western, NY","144015209","Craft beer snob. Huge Cubs ,Spurs, Dolphins and Florida Panthers fan. Sun up till sundown count on me.",28,101,"btzim","Irondequoit, NY","Irondequoit",43.211767,-77.572455,43.1916,-77.5833
"256","RT @: A Leader | Donald J. Trump For President - YouTube https://t.co/2Z3l342YNV","7.8236e+17","en","Sat Oct 01 23:20:50 +0000 2016",23,"Miami","51164692","Instagram: fredyab2010 Snapchat: fredyab Miami based.",253,387,"fredyabella","Miami, FL","Miami",25.7823535,-80.2333285,25.76479148,-80.19364125
"257","Today in History
October 1, 1971

Walt Disney World opened in Orlando, Florida.","7.8236e+17","en","Sat Oct 01 23:20:51 +0000 2016",365,"New Jersey, USA","1511327138","A member of The Linde Group, a world leading gases and engineering company with around 63,000 employees working in more than 100 countries worldwide.",411,223,"LindeCareersUS","Pennsylvania, USA","Pennsylvania",41.1179365,-77.604684,40.9013998,-79.9416549
"258","You in Texas or Ca bro? @","7.8236e+17","en","Sat Oct 01 23:20:52 +0000 2016",74,"Denver, CO","249407475","Your number one source for traffic updates throughout Colorado. If you see a Traffic Problem, call our Tipline! 303-713-8618 #COTraffic",1107,815,"TotalTrafficDEN","Denver, CO","Denver",39.713563,-104.9220935,39.65319,-105.053
"259","RT @: Don't just read Trumpist-fed #BasementDwellers hashtag. Hear the recording of HRC's desire for inclusive prosperity. https","7.8236e+17","en","Sat Oct 01 23:20:51 +0000 2016",1,NA,"419881057","IG  @mariorymelissa",268,864,"x3mariorymeliss","Seaside Heights, NJ","Seaside Heights",39.942963,-74.0825695,39.93887278,-74.07418371
"260","Dax has been excellent tonight. Everyone else? Not so much. #RBNY #NYvPHI","7.8236e+17","en","Sat Oct 01 23:20:52 +0000 2016",657,"Florida","107210762","Staffing and Recruiting Leader",521,1026,"GDKN","Pittsburgh, PA","Pittsburgh",40.431389,-79.9806895,40.4406248,-79.9958864
"261","Nick Weiler giving the crowd the tomahawk chop is one of the best things I've ever seen","7.8236e+17","en","Sat Oct 01 23:20:53 +0000 2016",0,"Pennsyltucky","384991828","We gotta live like we're dying because truly... You Only Live Once",22,109,"MagpiePhoenix","Pennsylvania, USA","Pennsylvania",41.1179365,-77.604684,40.11652031,-76.29396273
"262","RT @: News Media Silent On Controversial Lobbyist Brother Of Hillary Clintons Campaign Chairman John Podesta https://t.co/wj","7.8236e+17","en","Sat Oct 01 23:20:52 +0000 2016",1,NA,"407780497","UMO softball",682,448,"JennibethBurge","Buies Creek, NC","Buies Creek",35.4097365,-78.7386015,35.4129999,-78.73579
"263","RT @: Wow, just saw the really bad @ ratings. People don't want to watch bad product that only builds up Crooked Hillary.","7.8236e+17","en","Sat Oct 01 23:20:53 +0000 2016",4,"columbus","36845316","we'll keep doing what we do, just pretending that we're cool <U+2728> <U+0394>F<U+0395> <U+2728>",319,556,"carterquil","Georgia, USA","Georgia",32.6782075,-83.1738665,33.8849297,-84.4648819
"264","Touchdown! #BoomerSooner ","7.8236e+17","en","Sat Oct 01 23:20:54 +0000 2016",158,"Phoenix, AZ","21683752","Follow this account for geo-targeted Healthcare job tweets in Phoenix, AZ. Need help? Tweet us at @CareerArc!",1197,1427,"tmj_phx_health","Phoenix, AZ","Phoenix",33.5528625,-112.1246765,33.6782379,-112.1012912
"265","RT @: Why isn't Hillary 50 points ahead? Maybe it's the email scandal, policies that spread ISIS, or calling millions of ","7.8236e+17","en","Sat Oct 01 23:20:54 +0000 2016",204,"200 countries & territories","7.14405e+17","MoneyGram helps connect people through our global money transfer network.",433,2664,"MoneyGramJobs","St Louis Park, MN","St Louis Park",44.949067,-93.3694935,44.9597376,-93.3702186
"266","RT @: Not a smear! She's being real about how hard it is for grads 2 find jobs in their field after graduation! As happen ","7.8236e+17","en","Sat Oct 01 23:20:55 +0000 2016",2,"Toronto","874054044","Check out our new album Closer, http://ctf.cm/closer",189,110,"CTF_Music","Toronto, Ontario","Toronto",43.629311,-79.2725695,43.69587547,-79.59142356
"267","@ Define gradual! My own politics are well to the left of Jill's, let alone Bernie's.","7.8236e+17","en","Sat Oct 01 23:20:55 +0000 2016",16,"hillsborough, nc","16132521","Dad, husband, open source evangelist, tinkerer, car dude, dog owner and other stuff. All opinions are my own!",197,493,"rfreuden","West Virginia, USA","West Virginia",38.9201425,-80.1818345,38.411603,-79.995691
"268","RT @: .@, the choice of evangelicals, forced his wife 2 pose nude for Playboy even though she didnt want 2. ht","7.8236e+17","en","Sat Oct 01 23:20:55 +0000 2016",4,"<U+2661>! @Apinksne , joy","364186129",".<U+1540><U+263E>24/7 @xmwfy_<U+263D><U+1540><U+2661> <U+0337>",298,231,"xncky_","Tulsa, OK","Tulsa",36.1093915,-95.913642,36.06263357,-95.85331484
"269","2016/10/02 01:42:18 AM irt https://t.co/9WbV9f6YQa","7.8236e+17","en","Sat Oct 01 23:20:56 +0000 2016",1,"Broward and Miami Real Estate","32664644","Luxury Home Real Estate Broker",192,553,"va_david","Weston, FL","Weston",26.103362,-80.401725,26.09282305,-80.39363208
"270","RT @: Why Donald Trump's vicious body-shaming of women matters https://t.co/pftZQXcLoz https://t.co/HOZzlTfSSY","7.8236e+17","en","Sat Oct 01 23:20:56 +0000 2016",3,"Lubbock, Texas","22048169","I'm Katie. I sing most of my sentences. I'm a little weird. It takes some getting used to. I love puppies.",91,225,"katieluedeker","Lubbock, TX","Lubbock",33.5705265,-101.897173,33.54799,-101.92107
"271","RT @: Brilliantly put: Cry- Laugh-Puke https://t.co/yZ2pHL5G0u","7.8236e+17","en","Sat Oct 01 23:20:56 +0000 2016",375,NA,"404878140","#nowhiring #parttime #hourlyjobs",237,0,"PaneraCareers","La Verne, CA","La Verne",34.1257705,-117.767354,34.1124221,-117.7612296
